{"type":"FeatureCollection","features":[{"type":"Feature","properties":{"agency_name":"Dublin Bus","agency_key":"Dublin Bus","direction_id":1,"route_id":"60-44B-b12-1","agency_id":"978","route_short_name":"44b","route_long_name":"","route_type":3},"geometry":{"type":"LineString","coordinates":[[-6.24031425323934,53.2238911655705],[-6.24574965204046,53.2924078865991]]}},{"type":"Feature","properties":{"stop_id":"8250DB003514","stop_name":"Ballybrack Road, stop 3514","agency_key":"Dublin Bus","agency_name":"Dublin Bus","routes":[{"route_id":"60-44B-b12-1","route_short_name":"44b","route_long_name":""},{"route_id":"60-44B-d12-1","route_short_name":"44b","route_long_name":""}]},"geometry":{"type":"Point","coordinates":[-6.24028321210791,53.2239176720809]}},{"type":"Feature","properties":{"stop_id":"8250DB003515","stop_name":"Stars of Erin GAA, stop 3515","agency_key":"Dublin Bus","agency_name":"Dublin Bus","routes":[{"route_id":"60-44B-b12-1","route_short_name":"44b","route_long_name":""},{"route_id":"60-44B-d12-1","route_short_name":"44b","route_long_name":""}]},"geometry":{"type":"Point","coordinates":[-6.22903602122494,53.2202725566879]}},{"type":"Feature","properties":{"stop_id":"8250DB003516","stop_name":"Fiery Lane, stop 3516","agency_key":"Dublin Bus","agency_name":"Dublin Bus","routes":[{"route_id":"60-44B-b12-1","route_short_name":"44b","route_long_name":""},{"route_id":"60-44B-d12-1","route_short_name":"44b","route_long_name":""}]},"geometry":{"type":"Point","coordinates":[-6.22560553245196,53.2210214807826]}},{"type":"Feature","properties":{"stop_id":"8250DB003517","stop_name":"Johnnie Fox's, stop 3517","agency_key":"Dublin Bus","agency_name":"Dublin Bus","routes":[{"route_id":"60-44B-b12-1","route_short_name":"44b","route_long_name":""},{"route_id":"60-44B-d12-1","route_short_name":"44b","route_long_name":""}]},"geometry":{"type":"Point","coordinates":[-6.21970459955205,53.2217513972025]}},{"type":"Feature","properties":{"stop_id":"8250DB003518","stop_name":"Red House Road, stop 3518","agency_key":"Dublin Bus","agency_name":"Dublin Bus","routes":[{"route_id":"60-44B-b12-1","route_short_name":"44b","route_long_name":""},{"route_id":"60-44B-d12-1","route_short_name":"44b","route_long_name":""}]},"geometry":{"type":"Point","coordinates":[-6.22025208085427,53.224078567441]}},{"type":"Feature","properties":{"stop_id":"8250DB003519","stop_name":"Pinefield House, stop 3519","agency_key":"Dublin Bus","agency_name":"Dublin Bus","routes":[{"route_id":"60-44B-b12-1","route_short_name":"44b","route_long_name":""},{"route_id":"60-44B-d12-1","route_short_name":"44b","route_long_name":""}]},"geometry":{"type":"Point","coordinates":[-6.22128807937761,53.2287140399157]}},{"type":"Feature","properties":{"stop_id":"8250DB003521","stop_name":"Taylor's Folly, stop 3521","agency_key":"Dublin Bus","agency_name":"Dublin Bus","routes":[{"route_id":"60-44B-b12-1","route_short_name":"44b","route_long_name":""},{"route_id":"60-44B-d12-1","route_short_name":"44b","route_long_name":""}]},"geometry":{"type":"Point","coordinates":[-6.2221044057521,53.2375707313109]}},{"type":"Feature","properties":{"stop_id":"8250DB003523","stop_name":"Ballyedmonduff, stop 3523","agency_key":"Dublin Bus","agency_name":"Dublin Bus","routes":[{"route_id":"60-44B-b12-1","route_short_name":"44b","route_long_name":""},{"route_id":"60-44B-d12-1","route_short_name":"44b","route_long_name":""}]},"geometry":{"type":"Point","coordinates":[-6.22049357603956,53.2449800237524]}},{"type":"Feature","properties":{"stop_id":"8250DB003524","stop_name":"Ballyedmonduff Road, stop 3524","agency_key":"Dublin Bus","agency_name":"Dublin Bus","routes":[{"route_id":"60-44B-b12-1","route_short_name":"44b","route_long_name":""},{"route_id":"60-44B-d12-1","route_short_name":"44b","route_long_name":""}]},"geometry":{"type":"Point","coordinates":[-6.22227033137754,53.2498332577917]}},{"type":"Feature","properties":{"stop_id":"8250DB003525","stop_name":"The Paddocks, stop 3525","agency_key":"Dublin Bus","agency_name":"Dublin Bus","routes":[{"route_id":"60-44B-b12-1","route_short_name":"44b","route_long_name":""},{"route_id":"60-44B-d12-1","route_short_name":"44b","route_long_name":""}]},"geometry":{"type":"Point","coordinates":[-6.22520951729648,53.2523218766045]}},{"type":"Feature","properties":{"stop_id":"8250DB003527","stop_name":"Barnaculla, stop 3527","agency_key":"Dublin Bus","agency_name":"Dublin Bus","routes":[{"route_id":"60-44B-b12-1","route_short_name":"44b","route_long_name":""},{"route_id":"60-44B-d12-1","route_short_name":"44b","route_long_name":""}]},"geometry":{"type":"Point","coordinates":[-6.23128887249775,53.2546323510428]}},{"type":"Feature","properties":{"stop_id":"8250DB003528","stop_name":"Granite Field, stop 3528","agency_key":"Dublin Bus","agency_name":"Dublin Bus","routes":[{"route_id":"60-44B-b12-1","route_short_name":"44b","route_long_name":""},{"route_id":"60-44B-d12-1","route_short_name":"44b","route_long_name":""}]},"geometry":{"type":"Point","coordinates":[-6.23228769854983,53.2565796480441]}},{"type":"Feature","properties":{"stop_id":"8250DB003529","stop_name":"Woodside Cottages, stop 3529","agency_key":"Dublin Bus","agency_name":"Dublin Bus","routes":[{"route_id":"60-44B-b12-1","route_short_name":"44b","route_long_name":""},{"route_id":"60-44B-d12-1","route_short_name":"44b","route_long_name":""}]},"geometry":{"type":"Point","coordinates":[-6.23304275054317,53.2608063428446]}},{"type":"Feature","properties":{"stop_id":"8250DB003532","stop_name":"Blackglen Road, stop 3532","agency_key":"Dublin Bus","agency_name":"Dublin Bus","routes":[{"route_id":"60-44B-b12-1","route_short_name":"44b","route_long_name":""},{"route_id":"60-44B-d12-1","route_short_name":"44b","route_long_name":""}]},"geometry":{"type":"Point","coordinates":[-6.24016413495555,53.2647946193703]}},{"type":"Feature","properties":{"stop_id":"8250DB003533","stop_name":"Blackglen Court, stop 3533","agency_key":"Dublin Bus","agency_name":"Dublin Bus","routes":[{"route_id":"60-44B-b12-1","route_short_name":"44b","route_long_name":""},{"route_id":"60-44B-d12-1","route_short_name":"44b","route_long_name":""}]},"geometry":{"type":"Point","coordinates":[-6.2343045583035,53.2654719728793]}},{"type":"Feature","properties":{"stop_id":"8250DB003491","stop_name":"Lambs Cross, stop 3491","agency_key":"Dublin Bus","agency_name":"Dublin Bus","routes":[{"route_id":"60-44B-b12-1","route_short_name":"44b","route_long_name":""},{"route_id":"60-44B-d12-1","route_short_name":"44b","route_long_name":""}]},"geometry":{"type":"Point","coordinates":[-6.22926487187563,53.2655320423383]}},{"type":"Feature","properties":{"stop_id":"8250DB006007","stop_name":"Kilcross Road, stop 6007","agency_key":"Dublin Bus","agency_name":"Dublin Bus","routes":[{"route_id":"60-44B-b12-1","route_short_name":"44b","route_long_name":""},{"route_id":"60-44B-d12-1","route_short_name":"44b","route_long_name":""}]},"geometry":{"type":"Point","coordinates":[-6.22900010899074,53.2697615820768]}},{"type":"Feature","properties":{"stop_id":"8250DB002836","stop_name":"Central Bank, stop 2836","agency_key":"Dublin Bus","agency_name":"Dublin Bus","routes":[{"route_id":"60-44-b12-1","route_short_name":"44","route_long_name":""},{"route_id":"60-44-d12-1","route_short_name":"44","route_long_name":""},{"route_id":"60-44B-b12-1","route_short_name":"44b","route_long_name":""},{"route_id":"60-44B-d12-1","route_short_name":"44b","route_long_name":""}]},"geometry":{"type":"Point","coordinates":[-6.22962071172669,53.2754244140471]}},{"type":"Feature","properties":{"stop_id":"8250DB002837","stop_name":"Clonard Road, stop 2837","agency_key":"Dublin Bus","agency_name":"Dublin Bus","routes":[{"route_id":"60-44-b12-1","route_short_name":"44","route_long_name":""},{"route_id":"60-44-d12-1","route_short_name":"44","route_long_name":""},{"route_id":"60-44B-b12-1","route_short_name":"44b","route_long_name":""},{"route_id":"60-44B-d12-1","route_short_name":"44b","route_long_name":""}]},"geometry":{"type":"Point","coordinates":[-6.2306802423746,53.277363628821]}},{"type":"Feature","properties":{"stop_id":"8250DB002838","stop_name":"Ballawley Park, stop 2838","agency_key":"Dublin Bus","agency_name":"Dublin Bus","routes":[{"route_id":"60-44-b12-1","route_short_name":"44","route_long_name":""},{"route_id":"60-44-d12-1","route_short_name":"44","route_long_name":""},{"route_id":"60-44B-b12-1","route_short_name":"44b","route_long_name":""},{"route_id":"60-44B-d12-1","route_short_name":"44b","route_long_name":""}]},"geometry":{"type":"Point","coordinates":[-6.23205104846557,53.279756861447]}},{"type":"Feature","properties":{"stop_id":"8250DB002839","stop_name":"Balally Road, stop 2839","agency_key":"Dublin Bus","agency_name":"Dublin Bus","routes":[{"route_id":"60-44-b12-1","route_short_name":"44","route_long_name":""},{"route_id":"60-44-d12-1","route_short_name":"44","route_long_name":""},{"route_id":"60-44B-b12-1","route_short_name":"44b","route_long_name":""},{"route_id":"60-44B-d12-1","route_short_name":"44b","route_long_name":""}]},"geometry":{"type":"Point","coordinates":[-6.23406721779036,53.2828697077048]}},{"type":"Feature","properties":{"stop_id":"8250DB002840","stop_name":"Balally Drive, stop 2840","agency_key":"Dublin Bus","agency_name":"Dublin Bus","routes":[{"route_id":"60-44-b12-1","route_short_name":"44","route_long_name":""},{"route_id":"60-44-d12-1","route_short_name":"44","route_long_name":""},{"route_id":"60-44B-b12-1","route_short_name":"44b","route_long_name":""},{"route_id":"60-44B-d12-1","route_short_name":"44b","route_long_name":""}]},"geometry":{"type":"Point","coordinates":[-6.23705148012366,53.284334011837]}},{"type":"Feature","properties":{"stop_id":"8250DB002841","stop_name":"Dundrum Centre, stop 2841","agency_key":"Dublin Bus","agency_name":"Dublin Bus","routes":[{"route_id":"60-44-b12-1","route_short_name":"44","route_long_name":""},{"route_id":"60-44-d12-1","route_short_name":"44","route_long_name":""},{"route_id":"60-44B-b12-1","route_short_name":"44b","route_long_name":""},{"route_id":"60-44B-d12-1","route_short_name":"44b","route_long_name":""}]},"geometry":{"type":"Point","coordinates":[-6.24011399667947,53.2871835811484]}},{"type":"Feature","properties":{"stop_id":"8250DB002865","stop_name":"Holy Cross Church, stop 2865","agency_key":"Dublin Bus","agency_name":"Dublin Bus","routes":[{"route_id":"60-14-b12-1","route_short_name":"14","route_long_name":""},{"route_id":"60-14-d12-1","route_short_name":"14","route_long_name":""},{"route_id":"60-44-b12-1","route_short_name":"44","route_long_name":""},{"route_id":"60-44-d12-1","route_short_name":"44","route_long_name":""},{"route_id":"60-44B-b12-1","route_short_name":"44b","route_long_name":""},{"route_id":"60-44B-d12-1","route_short_name":"44b","route_long_name":""}]},"geometry":{"type":"Point","coordinates":[-6.24403042598967,53.2897040940093]}},{"type":"Feature","properties":{"stop_id":"8250DB002866","stop_name":"Dundrum Luas, stop 2866","agency_key":"Dublin Bus","agency_name":"Dublin Bus","routes":[{"route_id":"60-14-b12-1","route_short_name":"14","route_long_name":""},{"route_id":"60-14-d12-1","route_short_name":"14","route_long_name":""},{"route_id":"60-44-b12-1","route_short_name":"44","route_long_name":""},{"route_id":"60-44-d12-1","route_short_name":"44","route_long_name":""},{"route_id":"60-44B-b12-1","route_short_name":"44b","route_long_name":""},{"route_id":"60-44B-d12-1","route_short_name":"44b","route_long_name":""}]},"geometry":{"type":"Point","coordinates":[-6.24572391827138,53.2915716045912]}},{"type":"Feature","properties":{"stop_id":"8250DB002825","stop_name":"Dundrum Luas, stop 2825","agency_key":"Dublin Bus","agency_name":"Dublin Bus","routes":[{"route_id":"60-44-b12-1","route_short_name":"44","route_long_name":""},{"route_id":"60-44-d12-1","route_short_name":"44","route_long_name":""},{"route_id":"60-44B-b12-1","route_short_name":"44b","route_long_name":""},{"route_id":"60-44B-d12-1","route_short_name":"44b","route_long_name":""}]},"geometry":{"type":"Point","coordinates":[-6.24564470774124,53.2924063426343]}}]}