{"type":"FeatureCollection","features":[{"type":"Feature","properties":{"agency_name":"County Connection","agency_key":"county-connection","direction_id":0,"route_id":"7","route_short_name":"17","route_long_name":"Concord BART/North Concord BART","route_type":3,"route_color":"006493","route_text_color":"ffffff"},"geometry":{"type":"LineString","coordinates":[[-122.0294825,37.973789],[-122.023423,38.0018935]]}},{"type":"Feature","properties":{"stop_id":"893","stop_code":"893","stop_name":"Concord BART","location_type":0,"parent_station":"S1","agency_key":"county-connection","agency_name":"County Connection","routes":[{"route_id":"7","route_short_name":"17","route_long_name":"Concord BART/North Concord BART","route_color":"006493","route_text_color":"ffffff"},{"route_id":"22","route_short_name":"320","route_long_name":"DVC/Concord BART","route_color":"9C629D","route_text_color":"ffffff"}]},"geometry":{"type":"Point","coordinates":[-122.02929,37.974155]}},{"type":"Feature","properties":{"stop_id":"636","stop_code":"636","stop_name":"Grant St + Concord Blvd","location_type":0,"parent_station":"","agency_key":"county-connection","agency_name":"County Connection","routes":[{"route_id":"5","route_short_name":"15","route_long_name":"Concord BART/Pleasant Hill BART","route_color":"006493","route_text_color":"ffffff"},{"route_id":"7","route_short_name":"17","route_long_name":"Concord BART/North Concord BART","route_color":"006493","route_text_color":"ffffff"}]},"geometry":{"type":"Point","coordinates":[-122.032092,37.97611]}},{"type":"Feature","properties":{"stop_id":"637","stop_code":"637","stop_name":"Grant St + Pacheco St","location_type":0,"parent_station":"","agency_key":"county-connection","agency_name":"County Connection","routes":[{"route_id":"5","route_short_name":"15","route_long_name":"Concord BART/Pleasant Hill BART","route_color":"006493","route_text_color":"ffffff"},{"route_id":"7","route_short_name":"17","route_long_name":"Concord BART/North Concord BART","route_color":"006493","route_text_color":"ffffff"}]},"geometry":{"type":"Point","coordinates":[-122.034264,37.978775]}},{"type":"Feature","properties":{"stop_id":"638","stop_code":"638","stop_name":"Grant St + Bonifacio St","location_type":0,"parent_station":"","agency_key":"county-connection","agency_name":"County Connection","routes":[{"route_id":"5","route_short_name":"15","route_long_name":"Concord BART/Pleasant Hill BART","route_color":"006493","route_text_color":"ffffff"},{"route_id":"7","route_short_name":"17","route_long_name":"Concord BART/North Concord BART","route_color":"006493","route_text_color":"ffffff"}]},"geometry":{"type":"Point","coordinates":[-122.034854,37.97981]}},{"type":"Feature","properties":{"stop_id":"624","stop_code":"624","stop_name":"East St + Bacon St","location_type":0,"parent_station":"","agency_key":"county-connection","agency_name":"County Connection","routes":[{"route_id":"5","route_short_name":"15","route_long_name":"Concord BART/Pleasant Hill BART","route_color":"006493","route_text_color":"ffffff"},{"route_id":"7","route_short_name":"17","route_long_name":"Concord BART/North Concord BART","route_color":"006493","route_text_color":"ffffff"}]},"geometry":{"type":"Point","coordinates":[-122.03392,37.982618]}},{"type":"Feature","properties":{"stop_id":"639","stop_code":"639","stop_name":"Grant St + High School Ave","location_type":0,"parent_station":"","agency_key":"county-connection","agency_name":"County Connection","routes":[{"route_id":"5","route_short_name":"15","route_long_name":"Concord BART/Pleasant Hill BART","route_color":"006493","route_text_color":"ffffff"},{"route_id":"7","route_short_name":"17","route_long_name":"Concord BART/North Concord BART","route_color":"006493","route_text_color":"ffffff"}]},"geometry":{"type":"Point","coordinates":[-122.03529,37.984013]}},{"type":"Feature","properties":{"stop_id":"640","stop_code":"640","stop_name":"Grant St + Karren St","location_type":0,"parent_station":"","agency_key":"county-connection","agency_name":"County Connection","routes":[{"route_id":"7","route_short_name":"17","route_long_name":"Concord BART/North Concord BART","route_color":"006493","route_text_color":"ffffff"}]},"geometry":{"type":"Point","coordinates":[-122.03851,37.985686]}},{"type":"Feature","properties":{"stop_id":"641","stop_code":"641","stop_name":"Grant St + Fairfield Ave","location_type":0,"parent_station":"","agency_key":"county-connection","agency_name":"County Connection","routes":[{"route_id":"7","route_short_name":"17","route_long_name":"Concord BART/North Concord BART","route_color":"006493","route_text_color":"ffffff"}]},"geometry":{"type":"Point","coordinates":[-122.039582,37.987475]}},{"type":"Feature","properties":{"stop_id":"800","stop_code":"800","stop_name":"Solano Way + Grant St","location_type":0,"parent_station":"","agency_key":"county-connection","agency_name":"County Connection","routes":[{"route_id":"7","route_short_name":"17","route_long_name":"Concord BART/North Concord BART","route_color":"006493","route_text_color":"ffffff"}]},"geometry":{"type":"Point","coordinates":[-122.042047,37.989751]}},{"type":"Feature","properties":{"stop_id":"801","stop_code":"801","stop_name":"Solano Way + Hillside Ave","location_type":0,"parent_station":"","agency_key":"county-connection","agency_name":"County Connection","routes":[{"route_id":"7","route_short_name":"17","route_long_name":"Concord BART/North Concord BART","route_color":"006493","route_text_color":"ffffff"}]},"geometry":{"type":"Point","coordinates":[-122.045722,37.990808]}},{"type":"Feature","properties":{"stop_id":"802","stop_code":"802","stop_name":"Solano Way + Avon Ave","location_type":0,"parent_station":"","agency_key":"county-connection","agency_name":"County Connection","routes":[{"route_id":"7","route_short_name":"17","route_long_name":"Concord BART/North Concord BART","route_color":"006493","route_text_color":"ffffff"}]},"geometry":{"type":"Point","coordinates":[-122.049715,37.992711]}},{"type":"Feature","properties":{"stop_id":"803","stop_code":"803","stop_name":"Solano Way + Hilltop Rd","location_type":0,"parent_station":"","agency_key":"county-connection","agency_name":"County Connection","routes":[{"route_id":"7","route_short_name":"17","route_long_name":"Concord BART/North Concord BART","route_color":"006493","route_text_color":"ffffff"}]},"geometry":{"type":"Point","coordinates":[-122.05198,37.994401]}},{"type":"Feature","properties":{"stop_id":"804","stop_code":"804","stop_name":"Solano Way + Olivera Rd","location_type":0,"parent_station":"","agency_key":"county-connection","agency_name":"County Connection","routes":[{"route_id":"7","route_short_name":"17","route_long_name":"Concord BART/North Concord BART","route_color":"006493","route_text_color":"ffffff"}]},"geometry":{"type":"Point","coordinates":[-122.052894,37.998576]}},{"type":"Feature","properties":{"stop_id":"753","stop_code":"753","stop_name":"Olivera Rd + Ups Customer Center Concord","location_type":0,"parent_station":"","agency_key":"county-connection","agency_name":"County Connection","routes":[{"route_id":"7","route_short_name":"17","route_long_name":"Concord BART/North Concord BART","route_color":"006493","route_text_color":"ffffff"}]},"geometry":{"type":"Point","coordinates":[-122.05039,37.998685]}},{"type":"Feature","properties":{"stop_id":"754","stop_code":"754","stop_name":"Olivera Rd + Peralta Rd","location_type":0,"parent_station":"","agency_key":"county-connection","agency_name":"County Connection","routes":[{"route_id":"7","route_short_name":"17","route_long_name":"Concord BART/North Concord BART","route_color":"006493","route_text_color":"ffffff"}]},"geometry":{"type":"Point","coordinates":[-122.047829,37.998493]}},{"type":"Feature","properties":{"stop_id":"755","stop_code":"755","stop_name":"Olivera Rd + Terraza Del Sol","location_type":0,"parent_station":"","agency_key":"county-connection","agency_name":"County Connection","routes":[{"route_id":"7","route_short_name":"17","route_long_name":"Concord BART/North Concord BART","route_color":"006493","route_text_color":"ffffff"}]},"geometry":{"type":"Point","coordinates":[-122.045007,37.998203]}},{"type":"Feature","properties":{"stop_id":"756","stop_code":"756","stop_name":"Olivera Rd + Grant St","location_type":0,"parent_station":"","agency_key":"county-connection","agency_name":"County Connection","routes":[{"route_id":"7","route_short_name":"17","route_long_name":"Concord BART/North Concord BART","route_color":"006493","route_text_color":"ffffff"}]},"geometry":{"type":"Point","coordinates":[-122.042285,37.997683]}},{"type":"Feature","properties":{"stop_id":"757","stop_code":"757","stop_name":"Olivera Rd + Hillsborough Dr","location_type":0,"parent_station":"","agency_key":"county-connection","agency_name":"County Connection","routes":[{"route_id":"7","route_short_name":"17","route_long_name":"Concord BART/North Concord BART","route_color":"006493","route_text_color":"ffffff"}]},"geometry":{"type":"Point","coordinates":[-122.036602,37.996531]}},{"type":"Feature","properties":{"stop_id":"758","stop_code":"758","stop_name":"Olivera Rd + Thunderbird Dr","location_type":0,"parent_station":"","agency_key":"county-connection","agency_name":"County Connection","routes":[{"route_id":"7","route_short_name":"17","route_long_name":"Concord BART/North Concord BART","route_color":"006493","route_text_color":"ffffff"}]},"geometry":{"type":"Point","coordinates":[-122.034179,37.99601]}},{"type":"Feature","properties":{"stop_id":"759","stop_code":"759","stop_name":"Olivera Rd + Welch Ct","location_type":0,"parent_station":"","agency_key":"county-connection","agency_name":"County Connection","routes":[{"route_id":"7","route_short_name":"17","route_long_name":"Concord BART/North Concord BART","route_color":"006493","route_text_color":"ffffff"}]},"geometry":{"type":"Point","coordinates":[-122.03227,37.995621]}},{"type":"Feature","properties":{"stop_id":"776","stop_code":"776","stop_name":"Port Chicago Hwy + Olivera Rd","location_type":0,"parent_station":"","agency_key":"county-connection","agency_name":"County Connection","routes":[{"route_id":"7","route_short_name":"17","route_long_name":"Concord BART/North Concord BART","route_color":"006493","route_text_color":"ffffff"}]},"geometry":{"type":"Point","coordinates":[-122.030562,37.995505]}},{"type":"Feature","properties":{"stop_id":"897","stop_code":"897","stop_name":"North Concord Martinez BART","location_type":0,"parent_station":"S3","agency_key":"county-connection","agency_name":"County Connection","routes":[{"route_id":"7","route_short_name":"17","route_long_name":"Concord BART/North Concord BART","route_color":"006493","route_text_color":"ffffff"}]},"geometry":{"type":"Point","coordinates":[-122.024201,38.00225]}}]}