{"type":"FeatureCollection","features":[{"type":"Feature","properties":{"agency_name":"County Connection","agency_key":"county-connection","direction_id":1,"route_id":"28","route_short_name":"6","route_long_name":"Lafayette BART/Orinda BART","route_type":3,"route_color":"006493","route_text_color":"ffffff"},"geometry":{"type":"LineString","coordinates":[[-122.184197,37.878119],[-122.184197,37.878119]]}},{"type":"Feature","properties":{"agency_name":"County Connection","agency_key":"county-connection","direction_id":1,"route_id":"28","route_short_name":"6","route_long_name":"Lafayette BART/Orinda BART","route_type":3,"route_color":"006493","route_text_color":"ffffff"},"geometry":{"type":"LineString","coordinates":[[-122.125429,37.8933275],[-122.1108285,37.8424875]]}},{"type":"Feature","properties":{"agency_name":"County Connection","agency_key":"county-connection","direction_id":1,"route_id":"28","route_short_name":"6","route_long_name":"Lafayette BART/Orinda BART","route_type":3,"route_color":"006493","route_text_color":"ffffff"},"geometry":{"type":"LineString","coordinates":[[-122.11201,37.843181],[-122.11326,37.843428]]}},{"type":"Feature","properties":{"agency_name":"County Connection","agency_key":"county-connection","direction_id":1,"route_id":"28","route_short_name":"6","route_long_name":"Lafayette BART/Orinda BART","route_type":3,"route_color":"006493","route_text_color":"ffffff"},"geometry":{"type":"LineString","coordinates":[[-122.1259615,37.838595],[-122.1837365,37.8788385]]}},{"type":"Feature","properties":{"agency_name":"County Connection","agency_key":"county-connection","direction_id":1,"route_id":"28","route_short_name":"6","route_long_name":"Lafayette BART/Orinda BART","route_type":3,"route_color":"006493","route_text_color":"ffffff"},"geometry":{"type":"LineString","coordinates":[[-122.18457,37.8785595],[-122.1850185,37.8778105]]}},{"type":"Feature","properties":{"stop_id":"1162","stop_code":"1162","stop_name":"Lafayette BART","location_type":0,"parent_station":"","agency_key":"county-connection","agency_name":"County Connection","routes":[{"route_id":"28","route_short_name":"6","route_long_name":"Lafayette BART/Orinda BART","route_color":"006493","route_text_color":"ffffff"}]},"geometry":{"type":"Point","coordinates":[-122.125128,37.893571]}},{"type":"Feature","properties":{"stop_id":"1205","stop_code":"1205","stop_name":"Mt Diablo Blvd + Moraga Rd","location_type":0,"parent_station":"","agency_key":"county-connection","agency_name":"County Connection","routes":[{"route_id":"28","route_short_name":"6","route_long_name":"Lafayette BART/Orinda BART","route_color":"006493","route_text_color":"ffffff"}]},"geometry":{"type":"Point","coordinates":[-122.119492,37.891888]}},{"type":"Feature","properties":{"stop_id":"1406","stop_code":"1406","stop_name":"Orinda Way + Orinda Library","location_type":0,"parent_station":"","agency_key":"county-connection","agency_name":"County Connection","routes":[{"route_id":"28","route_short_name":"6","route_long_name":"Lafayette BART/Orinda BART","route_color":"006493","route_text_color":"ffffff"}]},"geometry":{"type":"Point","coordinates":[-122.186787,37.881538]}},{"type":"Feature","properties":{"stop_id":"1185","stop_code":"1185","stop_name":"Moraga Rd + Mt Diablo Blvd","location_type":0,"parent_station":"","agency_key":"county-connection","agency_name":"County Connection","routes":[{"route_id":"28","route_short_name":"6","route_long_name":"Lafayette BART/Orinda BART","route_color":"006493","route_text_color":"ffffff"}]},"geometry":{"type":"Point","coordinates":[-122.118729,37.89112]}},{"type":"Feature","properties":{"stop_id":"1407","stop_code":"1407","stop_name":"Orinda Way + Orinda Community Center","location_type":0,"parent_station":"","agency_key":"county-connection","agency_name":"County Connection","routes":[{"route_id":"28","route_short_name":"6","route_long_name":"Lafayette BART/Orinda BART","route_color":"006493","route_text_color":"ffffff"}]},"geometry":{"type":"Point","coordinates":[-122.187899,37.882383]}},{"type":"Feature","properties":{"stop_id":"1186","stop_code":"1186","stop_name":"Moraga Rd + Brook St","location_type":0,"parent_station":"","agency_key":"county-connection","agency_name":"County Connection","routes":[{"route_id":"28","route_short_name":"6","route_long_name":"Lafayette BART/Orinda BART","route_color":"006493","route_text_color":"ffffff"}]},"geometry":{"type":"Point","coordinates":[-122.11836,37.888661]}},{"type":"Feature","properties":{"stop_id":"1408","stop_code":"1408","stop_name":"Orinda Way + Irwin Way","location_type":0,"parent_station":"","agency_key":"county-connection","agency_name":"County Connection","routes":[{"route_id":"28","route_short_name":"6","route_long_name":"Lafayette BART/Orinda BART","route_color":"006493","route_text_color":"ffffff"}]},"geometry":{"type":"Point","coordinates":[-122.190005,37.884215]}},{"type":"Feature","properties":{"stop_id":"1187","stop_code":"1187","stop_name":"Moraga Rd + O'conner Dr","location_type":0,"parent_station":"","agency_key":"county-connection","agency_name":"County Connection","routes":[{"route_id":"28","route_short_name":"6","route_long_name":"Lafayette BART/Orinda BART","route_color":"006493","route_text_color":"ffffff"}]},"geometry":{"type":"Point","coordinates":[-122.118102,37.886731]}},{"type":"Feature","properties":{"stop_id":"1409","stop_code":"1409","stop_name":"Orinda Way + Avenida De Orinda","location_type":0,"parent_station":"","agency_key":"county-connection","agency_name":"County Connection","routes":[{"route_id":"28","route_short_name":"6","route_long_name":"Lafayette BART/Orinda BART","route_color":"006493","route_text_color":"ffffff"}]},"geometry":{"type":"Point","coordinates":[-122.191794,37.88538]}},{"type":"Feature","properties":{"stop_id":"1188","stop_code":"1188","stop_name":"Moraga Rd + Herman Dr","location_type":0,"parent_station":"","agency_key":"county-connection","agency_name":"County Connection","routes":[{"route_id":"28","route_short_name":"6","route_long_name":"Lafayette BART/Orinda BART","route_color":"006493","route_text_color":"ffffff"}]},"geometry":{"type":"Point","coordinates":[-122.11836,37.8853]}},{"type":"Feature","properties":{"stop_id":"1370","stop_code":"1370","stop_name":"Camino Pablo + El Toyonal","location_type":0,"parent_station":"","agency_key":"county-connection","agency_name":"County Connection","routes":[{"route_id":"28","route_short_name":"6","route_long_name":"Lafayette BART/Orinda BART","route_color":"006493","route_text_color":"ffffff"}]},"geometry":{"type":"Point","coordinates":[-122.193244,37.88546]}},{"type":"Feature","properties":{"stop_id":"1189","stop_code":"1189","stop_name":"Moraga Rd + Tanglewood Dr","location_type":0,"parent_station":"","agency_key":"county-connection","agency_name":"County Connection","routes":[{"route_id":"28","route_short_name":"6","route_long_name":"Lafayette BART/Orinda BART","route_color":"006493","route_text_color":"ffffff"}]},"geometry":{"type":"Point","coordinates":[-122.118937,37.88329]}},{"type":"Feature","properties":{"stop_id":"1347","stop_code":"1347","stop_name":"Moraga Rd + Via Granada Dr","location_type":0,"parent_station":"","agency_key":"county-connection","agency_name":"County Connection","routes":[{"route_id":"28","route_short_name":"6","route_long_name":"Lafayette BART/Orinda BART","route_color":"006493","route_text_color":"ffffff"}]},"geometry":{"type":"Point","coordinates":[-122.123982,37.872378]}},{"type":"Feature","properties":{"stop_id":"1348","stop_code":"1348","stop_name":"Moraga Rd + Campolindo Dr","location_type":0,"parent_station":"","agency_key":"county-connection","agency_name":"County Connection","routes":[{"route_id":"28","route_short_name":"6","route_long_name":"Lafayette BART/Orinda BART","route_color":"006493","route_text_color":"ffffff"}]},"geometry":{"type":"Point","coordinates":[-122.125274,37.868015]}},{"type":"Feature","properties":{"stop_id":"1349","stop_code":"1349","stop_name":"Moraga Rd + Buckingham Dr","location_type":0,"parent_station":"","agency_key":"county-connection","agency_name":"County Connection","routes":[{"route_id":"28","route_short_name":"6","route_long_name":"Lafayette BART/Orinda BART","route_color":"006493","route_text_color":"ffffff"}]},"geometry":{"type":"Point","coordinates":[-122.12426,37.864716]}},{"type":"Feature","properties":{"stop_id":"2144","stop_code":"2144","stop_name":"Moraga Rd + Rheem Blvd","location_type":0,"parent_station":"","agency_key":"county-connection","agency_name":"County Connection","routes":[{"route_id":"28","route_short_name":"6","route_long_name":"Lafayette BART/Orinda BART","route_color":"006493","route_text_color":"ffffff"}]},"geometry":{"type":"Point","coordinates":[-122.125075,37.861076]}},{"type":"Feature","properties":{"stop_id":"1350","stop_code":"1350","stop_name":"Moraga Rd + Kendall Cir","location_type":0,"parent_station":"","agency_key":"county-connection","agency_name":"County Connection","routes":[{"route_id":"28","route_short_name":"6","route_long_name":"Lafayette BART/Orinda BART","route_color":"006493","route_text_color":"ffffff"}]},"geometry":{"type":"Point","coordinates":[-122.124222,37.858045]}},{"type":"Feature","properties":{"stop_id":"1351","stop_code":"1351","stop_name":"Moraga Rd + Ascot Dr","location_type":0,"parent_station":"","agency_key":"county-connection","agency_name":"County Connection","routes":[{"route_id":"28","route_short_name":"6","route_long_name":"Lafayette BART/Orinda BART","route_color":"006493","route_text_color":"ffffff"}]},"geometry":{"type":"Point","coordinates":[-122.125015,37.85491]}},{"type":"Feature","properties":{"stop_id":"1352","stop_code":"1352","stop_name":"Moraga Rd + Devin Dr","location_type":0,"parent_station":"","agency_key":"county-connection","agency_name":"County Connection","routes":[{"route_id":"28","route_short_name":"6","route_long_name":"Lafayette BART/Orinda BART","route_color":"006493","route_text_color":"ffffff"}]},"geometry":{"type":"Point","coordinates":[-122.125466,37.850704]}},{"type":"Feature","properties":{"stop_id":"1353","stop_code":"1353","stop_name":"Moraga Rd + Corliss Dr","location_type":0,"parent_station":"","agency_key":"county-connection","agency_name":"County Connection","routes":[{"route_id":"28","route_short_name":"6","route_long_name":"Lafayette BART/Orinda BART","route_color":"006493","route_text_color":"ffffff"}]},"geometry":{"type":"Point","coordinates":[-122.126168,37.84692]}},{"type":"Feature","properties":{"stop_id":"1362","stop_code":"1362","stop_name":"St Mary's Rd + Moraga Library","location_type":0,"parent_station":"","agency_key":"county-connection","agency_name":"County Connection","routes":[{"route_id":"28","route_short_name":"6","route_long_name":"Lafayette BART/Orinda BART","route_color":"006493","route_text_color":"ffffff"}]},"geometry":{"type":"Point","coordinates":[-122.123049,37.841046]}},{"type":"Feature","properties":{"stop_id":"1363","stop_code":"1363","stop_name":"St Mary's Rd + Carter Dr","location_type":0,"parent_station":"","agency_key":"county-connection","agency_name":"County Connection","routes":[{"route_id":"28","route_short_name":"6","route_long_name":"Lafayette BART/Orinda BART","route_color":"006493","route_text_color":"ffffff"}]},"geometry":{"type":"Point","coordinates":[-122.117904,37.842488]}},{"type":"Feature","properties":{"stop_id":"1322","stop_code":"1322","stop_name":"St Mary's College","location_type":0,"parent_station":"","agency_key":"county-connection","agency_name":"County Connection","routes":[{"route_id":"28","route_short_name":"6","route_long_name":"Lafayette BART/Orinda BART","route_color":"006493","route_text_color":"ffffff"}]},"geometry":{"type":"Point","coordinates":[-122.110135,37.842095]}},{"type":"Feature","properties":{"stop_id":"1364","stop_code":"1364","stop_name":"St Mary's Rd + Carter Dr","location_type":0,"parent_station":"","agency_key":"county-connection","agency_name":"County Connection","routes":[{"route_id":"28","route_short_name":"6","route_long_name":"Lafayette BART/Orinda BART","route_color":"006493","route_text_color":"ffffff"}]},"geometry":{"type":"Point","coordinates":[-122.117942,37.8426]}},{"type":"Feature","properties":{"stop_id":"1365","stop_code":"1365","stop_name":"St Mary's Rd + Moraga Library","location_type":0,"parent_station":"","agency_key":"county-connection","agency_name":"County Connection","routes":[{"route_id":"28","route_short_name":"6","route_long_name":"Lafayette BART/Orinda BART","route_color":"006493","route_text_color":"ffffff"}]},"geometry":{"type":"Point","coordinates":[-122.123069,37.841161]}},{"type":"Feature","properties":{"stop_id":"1354","stop_code":"1354","stop_name":"Moraga Rd + Alta Mesa Dr","location_type":0,"parent_station":"","agency_key":"county-connection","agency_name":"County Connection","routes":[{"route_id":"28","route_short_name":"6","route_long_name":"Lafayette BART/Orinda BART","route_color":"006493","route_text_color":"ffffff"}]},"geometry":{"type":"Point","coordinates":[-122.126053,37.837761]}},{"type":"Feature","properties":{"stop_id":"1355","stop_code":"1355","stop_name":"Moraga Rd + Moraga Way","location_type":0,"parent_station":"","agency_key":"county-connection","agency_name":"County Connection","routes":[{"route_id":"28","route_short_name":"6","route_long_name":"Lafayette BART/Orinda BART","route_color":"006493","route_text_color":"ffffff"}]},"geometry":{"type":"Point","coordinates":[-122.127175,37.834518]}},{"type":"Feature","properties":{"stop_id":"1356","stop_code":"1356","stop_name":"Moraga Way + School St","location_type":0,"parent_station":"","agency_key":"county-connection","agency_name":"County Connection","routes":[{"route_id":"28","route_short_name":"6","route_long_name":"Lafayette BART/Orinda BART","route_color":"006493","route_text_color":"ffffff"}]},"geometry":{"type":"Point","coordinates":[-122.130002,37.835271]}},{"type":"Feature","properties":{"stop_id":"1357","stop_code":"1357","stop_name":"Moraga Way + Camino Ricardo","location_type":0,"parent_station":"","agency_key":"county-connection","agency_name":"County Connection","routes":[{"route_id":"28","route_short_name":"6","route_long_name":"Lafayette BART/Orinda BART","route_color":"006493","route_text_color":"ffffff"}]},"geometry":{"type":"Point","coordinates":[-122.134514,37.837171]}},{"type":"Feature","properties":{"stop_id":"1358","stop_code":"1358","stop_name":"Moraga Way + Hardie Dr","location_type":0,"parent_station":"","agency_key":"county-connection","agency_name":"County Connection","routes":[{"route_id":"28","route_short_name":"6","route_long_name":"Lafayette BART/Orinda BART","route_color":"006493","route_text_color":"ffffff"}]},"geometry":{"type":"Point","coordinates":[-122.142327,37.841278]}},{"type":"Feature","properties":{"stop_id":"1405","stop_code":"1405","stop_name":"Moraga Way + Eastwood Dr","location_type":0,"parent_station":"","agency_key":"county-connection","agency_name":"County Connection","routes":[{"route_id":"28","route_short_name":"6","route_long_name":"Lafayette BART/Orinda BART","route_color":"006493","route_text_color":"ffffff"}]},"geometry":{"type":"Point","coordinates":[-122.146275,37.84341]}},{"type":"Feature","properties":{"stop_id":"1394","stop_code":"1394","stop_name":"Moraga Way + Coral Dr","location_type":0,"parent_station":"","agency_key":"county-connection","agency_name":"County Connection","routes":[{"route_id":"28","route_short_name":"6","route_long_name":"Lafayette BART/Orinda BART","route_color":"006493","route_text_color":"ffffff"}]},"geometry":{"type":"Point","coordinates":[-122.148739,37.844718]}},{"type":"Feature","properties":{"stop_id":"1395","stop_code":"1395","stop_name":"Moraga Way + Whitehall Dr","location_type":0,"parent_station":"","agency_key":"county-connection","agency_name":"County Connection","routes":[{"route_id":"28","route_short_name":"6","route_long_name":"Lafayette BART/Orinda BART","route_color":"006493","route_text_color":"ffffff"}]},"geometry":{"type":"Point","coordinates":[-122.151937,37.847058]}},{"type":"Feature","properties":{"stop_id":"1396","stop_code":"1396","stop_name":"Moraga Way + Southwaite Ct","location_type":0,"parent_station":"","agency_key":"county-connection","agency_name":"County Connection","routes":[{"route_id":"28","route_short_name":"6","route_long_name":"Lafayette BART/Orinda BART","route_color":"006493","route_text_color":"ffffff"}]},"geometry":{"type":"Point","coordinates":[-122.151719,37.85203]}},{"type":"Feature","properties":{"stop_id":"1397","stop_code":"1397","stop_name":"Moraga Way + Ivy Dr","location_type":0,"parent_station":"","agency_key":"county-connection","agency_name":"County Connection","routes":[{"route_id":"28","route_short_name":"6","route_long_name":"Lafayette BART/Orinda BART","route_color":"006493","route_text_color":"ffffff"}]},"geometry":{"type":"Point","coordinates":[-122.152772,37.854806]}},{"type":"Feature","properties":{"stop_id":"1398","stop_code":"1398","stop_name":"Moraga Way + Hall Dr","location_type":0,"parent_station":"","agency_key":"county-connection","agency_name":"County Connection","routes":[{"route_id":"28","route_short_name":"6","route_long_name":"Lafayette BART/Orinda BART","route_color":"006493","route_text_color":"ffffff"}]},"geometry":{"type":"Point","coordinates":[-122.155175,37.856365]}},{"type":"Feature","properties":{"stop_id":"1399","stop_code":"1399","stop_name":"Moraga Way + Ardor Dr","location_type":0,"parent_station":"","agency_key":"county-connection","agency_name":"County Connection","routes":[{"route_id":"28","route_short_name":"6","route_long_name":"Lafayette BART/Orinda BART","route_color":"006493","route_text_color":"ffffff"}]},"geometry":{"type":"Point","coordinates":[-122.157839,37.857898]}},{"type":"Feature","properties":{"stop_id":"2129","stop_code":"2129","stop_name":"Moraga Way + Orchard Rd","location_type":0,"parent_station":"","agency_key":"county-connection","agency_name":"County Connection","routes":[{"route_id":"28","route_short_name":"6","route_long_name":"Lafayette BART/Orinda BART","route_color":"006493","route_text_color":"ffffff"}]},"geometry":{"type":"Point","coordinates":[-122.1635,37.859663]}},{"type":"Feature","properties":{"stop_id":"1401","stop_code":"1401","stop_name":"Moraga Way + Holy Shepherd Lutheran Church","location_type":0,"parent_station":"","agency_key":"county-connection","agency_name":"County Connection","routes":[{"route_id":"28","route_short_name":"6","route_long_name":"Lafayette BART/Orinda BART","route_color":"006493","route_text_color":"ffffff"}]},"geometry":{"type":"Point","coordinates":[-122.165209,37.86041]}},{"type":"Feature","properties":{"stop_id":"1402","stop_code":"1402","stop_name":"Moraga Way + Glorietta Way","location_type":0,"parent_station":"","agency_key":"county-connection","agency_name":"County Connection","routes":[{"route_id":"28","route_short_name":"6","route_long_name":"Lafayette BART/Orinda BART","route_color":"006493","route_text_color":"ffffff"}]},"geometry":{"type":"Point","coordinates":[-122.168824,37.862403]}},{"type":"Feature","properties":{"stop_id":"1403","stop_code":"1403","stop_name":"Moraga Way + Brookside Dr","location_type":0,"parent_station":"","agency_key":"county-connection","agency_name":"County Connection","routes":[{"route_id":"28","route_short_name":"6","route_long_name":"Lafayette BART/Orinda BART","route_color":"006493","route_text_color":"ffffff"}]},"geometry":{"type":"Point","coordinates":[-122.174647,37.865583]}},{"type":"Feature","properties":{"stop_id":"1404","stop_code":"1404","stop_name":"Moraga Way + Orchard Rd","location_type":0,"parent_station":"","agency_key":"county-connection","agency_name":"County Connection","routes":[{"route_id":"28","route_short_name":"6","route_long_name":"Lafayette BART/Orinda BART","route_color":"006493","route_text_color":"ffffff"}]},"geometry":{"type":"Point","coordinates":[-122.177289,37.871226]}},{"type":"Feature","properties":{"stop_id":"1372","stop_code":"1372","stop_name":"Camino Pablo + Moraga Way","location_type":0,"parent_station":"","agency_key":"county-connection","agency_name":"County Connection","routes":[{"route_id":"28","route_short_name":"6","route_long_name":"Lafayette BART/Orinda BART","route_color":"006493","route_text_color":"ffffff"}]},"geometry":{"type":"Point","coordinates":[-122.180747,37.877511]}},{"type":"Feature","properties":{"stop_id":"1366","stop_code":"1366","stop_name":"Orinda BART","location_type":0,"parent_station":"","agency_key":"county-connection","agency_name":"County Connection","routes":[{"route_id":"28","route_short_name":"6","route_long_name":"Lafayette BART/Orinda BART","route_color":"006493","route_text_color":"ffffff"}]},"geometry":{"type":"Point","coordinates":[-122.184319,37.87796]}}]}