{"type":"FeatureCollection","features":[{"type":"Feature","properties":{"stop_id":"700000000536","stop_name":"Little George Street","routes":[{"route_id":"MET-2A","agency_id":"MET","route_short_name":"2A","route_long_name":"Fairview Road - City Centre","route_type":3},{"route_id":"MET-2B","agency_id":"MET","route_short_name":"2B","route_long_name":"Fairview Road - City Centre","route_type":3},{"route_id":"MET-2C","agency_id":"MET","route_short_name":"2C","route_long_name":"Monkstown - City Centre","route_type":3},{"route_id":"MET-2D","agency_id":"MET","route_short_name":"2D","route_long_name":"Monkstown - City Centre","route_type":3},{"route_id":"MET-2E","agency_id":"MET","route_short_name":"2E","route_long_name":"Monkstown - Rathcoole - City Centre","route_type":3},{"route_id":"MET-2G","agency_id":"MET","route_short_name":"2G","route_long_name":"Monkstown - City Centre","route_type":3},{"route_id":"MET-2H","agency_id":"MET","route_short_name":"2H","route_long_name":"Rathfern - Rathcoole - City Centre","route_type":3},{"route_id":"MET-96","agency_id":"MET","route_short_name":"96","route_long_name":"Stena Line Terminal - Westbank Road - Duncrue Road - City Centre","route_type":3}],"agency_name":"Translink"},"geometry":{"type":"Point","coordinates":[-5.92801,54.60558]}},{"type":"Feature","properties":{"stop_id":"700000001017","stop_name":"Duncrue Street (Northern Road)","routes":[{"route_id":"MET-96","agency_id":"MET","route_short_name":"96","route_long_name":"Stena Line Terminal - Westbank Road - Duncrue Road - City Centre","route_type":3}],"agency_name":"Translink"},"geometry":{"type":"Point","coordinates":[-5.91997,54.61395]}},{"type":"Feature","properties":{"stop_id":"700000001019","stop_name":"Duncrue Street (Milewater Road)","routes":[{"route_id":"MET-96","agency_id":"MET","route_short_name":"96","route_long_name":"Stena Line Terminal - Westbank Road - Duncrue Road - City Centre","route_type":3}],"agency_name":"Translink"},"geometry":{"type":"Point","coordinates":[-5.91829,54.6168]}},{"type":"Feature","properties":{"stop_id":"700000001021","stop_name":"Duncrue Street (McKee Building)","routes":[{"route_id":"MET-96","agency_id":"MET","route_short_name":"96","route_long_name":"Stena Line Terminal - Westbank Road - Duncrue Road - City Centre","route_type":3}],"agency_name":"Translink"},"geometry":{"type":"Point","coordinates":[-5.91497,54.61932]}},{"type":"Feature","properties":{"stop_id":"700000001023","stop_name":"Duncrue Street (Powerplant Trade)","routes":[{"route_id":"MET-96","agency_id":"MET","route_short_name":"96","route_long_name":"Stena Line Terminal - Westbank Road - Duncrue Road - City Centre","route_type":3}],"agency_name":"Translink"},"geometry":{"type":"Point","coordinates":[-5.91321,54.62054]}},{"type":"Feature","properties":{"stop_id":"700000001025","stop_name":"Bretland House","routes":[{"route_id":"MET-96","agency_id":"MET","route_short_name":"96","route_long_name":"Stena Line Terminal - Westbank Road - Duncrue Road - City Centre","route_type":3}],"agency_name":"Translink"},"geometry":{"type":"Point","coordinates":[-5.91337,54.62169]}},{"type":"Feature","properties":{"stop_id":"700000001027","stop_name":"Duncrue Road (Scruttons)","routes":[{"route_id":"MET-96","agency_id":"MET","route_short_name":"96","route_long_name":"Stena Line Terminal - Westbank Road - Duncrue Road - City Centre","route_type":3}],"agency_name":"Translink"},"geometry":{"type":"Point","coordinates":[-5.91579,54.62243]}},{"type":"Feature","properties":{"stop_id":"700000001029","stop_name":"Duncrue Pass","routes":[{"route_id":"MET-96","agency_id":"MET","route_short_name":"96","route_long_name":"Stena Line Terminal - Westbank Road - Duncrue Road - City Centre","route_type":3}],"agency_name":"Translink"},"geometry":{"type":"Point","coordinates":[-5.91544,54.62376]}},{"type":"Feature","properties":{"stop_id":"700000001031","stop_name":"Duncrue Road (Musgrave Cash & Carry)","routes":[{"route_id":"MET-96","agency_id":"MET","route_short_name":"96","route_long_name":"Stena Line Terminal - Westbank Road - Duncrue Road - City Centre","route_type":3}],"agency_name":"Translink"},"geometry":{"type":"Point","coordinates":[-5.91491,54.62596]}},{"type":"Feature","properties":{"stop_id":"700000001033","stop_name":"Dargan Crescent (Auto Trader)","routes":[{"route_id":"MET-96","agency_id":"MET","route_short_name":"96","route_long_name":"Stena Line Terminal - Westbank Road - Duncrue Road - City Centre","route_type":3}],"agency_name":"Translink"},"geometry":{"type":"Point","coordinates":[-5.91281,54.62643]}},{"type":"Feature","properties":{"stop_id":"700000001035","stop_name":"Dargan Crescent (BKB Bathroom)","routes":[{"route_id":"MET-96","agency_id":"MET","route_short_name":"96","route_long_name":"Stena Line Terminal - Westbank Road - Duncrue Road - City Centre","route_type":3}],"agency_name":"Translink"},"geometry":{"type":"Point","coordinates":[-5.90982,54.62643]}},{"type":"Feature","properties":{"stop_id":"700000001037","stop_name":"Dargan Crescent (Vodafone)","routes":[{"route_id":"MET-96","agency_id":"MET","route_short_name":"96","route_long_name":"Stena Line Terminal - Westbank Road - Duncrue Road - City Centre","route_type":3}],"agency_name":"Translink"},"geometry":{"type":"Point","coordinates":[-5.90804,54.62755]}},{"type":"Feature","properties":{"stop_id":"700000001039","stop_name":"Dargan Road (Powerteam)","routes":[{"route_id":"MET-96","agency_id":"MET","route_short_name":"96","route_long_name":"Stena Line Terminal - Westbank Road - Duncrue Road - City Centre","route_type":3}],"agency_name":"Translink"},"geometry":{"type":"Point","coordinates":[-5.90694,54.62984]}},{"type":"Feature","properties":{"stop_id":"700000001041","stop_name":"Westbank Road (Thomas Johnston)","routes":[{"route_id":"MET-96","agency_id":"MET","route_short_name":"96","route_long_name":"Stena Line Terminal - Westbank Road - Duncrue Road - City Centre","route_type":3}],"agency_name":"Translink"},"geometry":{"type":"Point","coordinates":[-5.89577,54.62942]}},{"type":"Feature","properties":{"stop_id":"700000001043","stop_name":"Westbank Road (Norse Merchant)","routes":[{"route_id":"MET-96","agency_id":"MET","route_short_name":"96","route_long_name":"Stena Line Terminal - Westbank Road - Duncrue Road - City Centre","route_type":3}],"agency_name":"Translink"},"geometry":{"type":"Point","coordinates":[-5.89364,54.63036]}},{"type":"Feature","properties":{"stop_id":"700000001045","stop_name":"Westbank Road (Express Hoses)","routes":[{"route_id":"MET-96","agency_id":"MET","route_short_name":"96","route_long_name":"Stena Line Terminal - Westbank Road - Duncrue Road - City Centre","route_type":3}],"agency_name":"Translink"},"geometry":{"type":"Point","coordinates":[-5.89019,54.63199]}},{"type":"Feature","properties":{"stop_id":"700000001047","stop_name":"Westbank Road (last stop outward)","routes":[{"route_id":"MET-96","agency_id":"MET","route_short_name":"96","route_long_name":"Stena Line Terminal - Westbank Road - Duncrue Road - City Centre","route_type":3}],"agency_name":"Translink"},"geometry":{"type":"Point","coordinates":[-5.88639,54.6341]}},{"type":"Feature","properties":{"stop_id":"700000001647","stop_name":"High Street","routes":[{"route_id":"MET-61","agency_id":"MET","route_short_name":"61","route_long_name":"Carr's Glen - City Centre","route_type":3},{"route_id":"MET-64","agency_id":"MET","route_short_name":"64","route_long_name":"Abbeycentre - Downview - City Centre","route_type":3},{"route_id":"MET-64B","agency_id":"MET","route_short_name":"64B","route_long_name":"Downview - City Centre","route_type":3},{"route_id":"MET-96","agency_id":"MET","route_short_name":"96","route_long_name":"Stena Line Terminal - Westbank Road - Duncrue Road - City Centre","route_type":3}],"agency_name":"Translink"},"geometry":{"type":"Point","coordinates":[-5.92694,54.60009]}},{"type":"Feature","properties":{"stop_id":"700000001785","stop_name":"Castle Junction","routes":[{"route_id":"MET-61","agency_id":"MET","route_short_name":"61","route_long_name":"Carr's Glen - City Centre","route_type":3},{"route_id":"MET-64","agency_id":"MET","route_short_name":"64","route_long_name":"Abbeycentre - Downview - City Centre","route_type":3},{"route_id":"MET-64B","agency_id":"MET","route_short_name":"64B","route_long_name":"Downview - City Centre","route_type":3},{"route_id":"MET-96","agency_id":"MET","route_short_name":"96","route_long_name":"Stena Line Terminal - Westbank Road - Duncrue Road - City Centre","route_type":3}],"agency_name":"Translink"},"geometry":{"type":"Point","coordinates":[-5.92915,54.59942]}},{"type":"Feature","properties":{"stop_id":"700000015233","stop_name":"Stenaline terminus","routes":[{"route_id":"MET-96","agency_id":"MET","route_short_name":"96","route_long_name":"Stena Line Terminal - Westbank Road - Duncrue Road - City Centre","route_type":3}],"agency_name":"Translink"},"geometry":{"type":"Point","coordinates":[-5.88128,54.63582]}},{"type":"Feature","properties":{"stop_id":"700000015366","stop_name":"Upper Queen Street 3","routes":[{"route_id":"MET-13","agency_id":"MET","route_short_name":"13","route_long_name":"City Centre - Newtownabbey - City Centre (Circular)","route_type":3},{"route_id":"MET-13B","agency_id":"MET","route_short_name":"13B","route_long_name":"City Centre - Glenville","route_type":3},{"route_id":"MET-14","agency_id":"MET","route_short_name":"14","route_long_name":"City Centre - Newtownabbey - City Centre (Circular)","route_type":3},{"route_id":"MET-14A","agency_id":"MET","route_short_name":"14A","route_long_name":"City Centre - Newtownabbey - City Centre (Circular)","route_type":3},{"route_id":"MET-96","agency_id":"MET","route_short_name":"96","route_long_name":"Stena Line Terminal - Westbank Road - Duncrue Road - City Centre","route_type":3}],"agency_name":"Translink"},"geometry":{"type":"Point","coordinates":[-5.93334,54.59628]}}]}