stop_id,stop_name,stop_lat,stop_lon
700000000000,Mount Eagles,54.552832,-6.045183
700000000001,Queens Square,54.600955,-5.923660
700000000002,Lagmore Reservoir,54.555152,-6.042798
700000000003,Station Street,54.600624,-5.918624
700000000004,Lagmore Avenue (Teeling Avenue),54.554886,-6.041874
700000000005,Short Strand (Newtownards Road),54.600146,-5.908106
700000000006,Lagmore Avenue (Glendowan Park),54.553893,-6.039826
700000000007,Tower Street,54.599795,-5.905037
700000000008,Lagmore Avenue (Glenferna),54.554147,-6.032764
700000000009,Templemore Avenue,54.599367,-5.901588
700000000010,Lagmore Meadows,54.551385,-6.031718
700000000011,Dee Street,54.598898,-5.897996
700000000012,Lagmore Drive,54.549650,-6.031949
700000000013,Ribble Street,54.598330,-5.893589
700000000014,Lagmore Dale,54.548405,-6.029103
700000000015,Connswater,54.598146,-5.892038
700000000016,Lagmore Dale,54.548348,-6.029468
700000000017,Connswater,54.597874,-5.889874
700000000018,Lagmore Drive,54.548739,-6.031766
700000000019,Holywood Arches,54.598112,-5.887511
700000000020,Lagmore Meadows,54.550946,-6.032216
700000000021,Dundela Park,54.600047,-5.884660
700000000022,Lagmore Avenue (Glenferna),54.553815,-6.032205
700000000023,Parkgate Avenue,54.601894,-5.882884
700000000024,Lagmore Avenue (Glendowan Park),54.553808,-6.039694
700000000026,Lagmore Avenue (Teeling Avenue),54.554533,-6.041685
700000000027,Connsbrook Avenue (Larkfield),54.604841,-5.880160
700000000029,Palmerston Road,54.605702,-5.876028
700000000030,Summerhill Estate,54.547009,-6.023504
700000000031,Palmerston Road (Station Road),54.607115,-5.874597
700000000032,Summerhill Drive (St.Marks),54.549810,-6.023393
700000000033,Station Road,54.608086,-5.875449
700000000034,Brook Activity Centre,54.552587,-6.021841
700000000035,Sydenham Halt,54.609335,-5.876885
700000000036,Twinbrook Road,54.554501,-6.023500
700000000037,Inverary Drive,54.610387,-5.874645
700000000038,Twinbrook Road,54.554757,-6.026078
700000000039,Inverary Playing Fields,54.609727,-5.872522
700000000041,Inverleath Drive,54.608824,-5.870391
700000000043,Carolhill,54.608366,-5.868689
700000000045,Ashfield Boys,54.610003,-5.866707
700000000047,Ashfield Girls,54.611015,-5.865439
700000000048,Black's Road (Balmoral Hotel),54.560429,-5.998549
700000000049,Blanchflower Park,54.612944,-5.863050
700000000050,Black's Road (Garnock Hill),54.562830,-6.001276
700000000051,Tillysburn,54.614666,-5.861803
700000000052,Black's Road (Brooke Drive),54.564081,-6.003983
700000000053,Knocknagoney Road,54.618916,-5.857976
700000000054,Black's Road (Black's Court),54.564347,-6.005727
700000000055,Knocknagoney Primary,54.618511,-5.854869
700000000056,Black's Road (Erris Grove),54.565750,-6.009781
700000000057,Knocknagoney Avenue,54.618219,-5.853044
700000000058,Black's Road (Ringford Park),54.566112,-6.010250
700000000060,Black's Road (Trenchard),54.565106,-6.008309
700000000061,Knocknagoney Primary,54.618729,-5.857059
700000000062,Black's Road (Brooke Drive),54.562934,-6.001116
700000000063,Knocknagoney Dale,54.619011,-5.859503
700000000064,Black's Road (Balmoral Hotel),54.560819,-5.998711
700000000065,Tillysburn,54.618537,-5.860249
700000000066,Black's Road (M1 Onslip),54.559348,-5.997236
700000000067,Tillysburn Park,54.613848,-5.861772
700000000069,Templeton House,54.612936,-5.862724
700000000071,Ashfield Girls,54.610840,-5.865283
700000000072,Upper Dunmurry Lane (Glengoland),54.562518,-6.017465
700000000073,Ashfield Boys,54.609445,-5.866995
700000000074,Upper Dunmurry Lane (Corrina Park),54.560155,-6.015205
700000000075,Carolhill,54.608509,-5.868145
700000000076,Upper Dunmurry Lane (Corrina Park),54.560511,-6.015874
700000000077,Inverary Avenue,54.608629,-5.870031
700000000078,Upper Dunmurry Lane (Glengoland),54.562189,-6.017340
700000000079,Inverleith Drive,54.609347,-5.871742
700000000080,Upper Dunmurry Lane (Cherry Road),54.556987,-6.010668
700000000081,Inverary Playing Fields,54.610072,-5.873546
700000000082,Cherry Road,54.554130,-6.013838
700000000083,Sydenham Station,54.609139,-5.877129
700000000084,Cherry Park,54.553625,-6.016852
700000000085,Station Road,54.608158,-5.875471
700000000086,Aspen Walk,54.554942,-6.019164
700000000087,Palmerston Road (Station Road),54.607223,-5.874329
700000000088,St Luke's,54.554963,-6.021781
700000000089,Larkfield Road,54.605151,-5.877230
700000000090,St Luke's,54.554997,-6.021846
700000000091,Connsbrook Avenue (Larkfield),54.605225,-5.879685
700000000092,Aspen Walk,54.554957,-6.018995
700000000093,Strandburn Drive,54.603789,-5.881020
700000000094,Cherry Park,54.553728,-6.016986
700000000095,Parkgate Avenue,54.602713,-5.882017
700000000096,Cherry Road,54.554415,-6.013634
700000000097,Glendale Court,54.600116,-5.884465
700000000098,Upper Dunmurry Lane (Cherry Road),54.556629,-6.010355
700000000099,Connsbrook Avenue,54.599038,-5.885013
700000000100,Upper Dunmurry Lane (Credenhill),54.557990,-6.012423
700000000101,Holywood Arches,54.598255,-5.886689
700000000102,Old Colin,54.563124,-6.021131
700000000103,Connswater,54.597946,-5.892096
700000000104,Laurelbank,54.563234,-6.026744
700000000105,Hunt Street,54.598225,-5.893780
700000000106,Poleglass (Pembroke Loop),54.565654,-6.026720
700000000107,Dee Street,54.598715,-5.897560
700000000108,Pembroke Manor,54.567585,-6.023583
700000000109,Templemore Avenue,54.599210,-5.901433
700000000110,Colinbrook Avenue,54.570364,-6.026535
700000000111,Tower Street,54.599485,-5.903520
700000000112,Springbank Close,54.568992,-6.028040
700000000113,Bryson Street,54.599875,-5.906454
700000000114,Springbank Drive,54.567952,-6.029563
700000000115,Short Strand (Newtownards Road),54.600180,-5.909008
700000000116,Pantridge Road (Pembrooke Loop),54.564108,-6.028580
700000000117,Bridge End,54.599766,-5.917055
700000000118,Laurelbank,54.563305,-6.026519
700000000119,Oxford Street,54.598917,-5.921604
700000000120,Old Colin,54.563361,-6.021046
700000000121,Waterfront Hall,54.597288,-5.921355
700000000122,Brian's Well Close,54.563150,-6.034397
700000000123,East Bridge Street (Central Station),54.595744,-5.916854
700000000124,Brian's Well Road (Glenkeen),54.561049,-6.035907
700000000125,Short Strand (Albert Bridge Road),54.595833,-5.909381
700000000126,Brian's Well Close,54.563523,-6.034264
700000000127,The Mount,54.595363,-5.906378
700000000128,Bell Steel Road (Glenwood),54.560500,-6.029987
700000000129,Templemore Avenue,54.595330,-5.902673
700000000130,Bell Steel Road (Woodside),54.556298,-6.029495
700000000131,Glenmore Street,54.595892,-5.900016
700000000132,Bell Steel Road (Stewartstown Road),54.557233,-6.026276
700000000133,Hornby Street,54.596703,-5.897197
700000000134,Donegall Square North,54.597322,-5.931116
700000000135,Bloomfield Commercial Centre,54.597771,-5.893628
700000000137,Strandtown,54.599623,-5.882482
700000000139,Strand Cinema,54.600426,-5.879879
700000000141,Holywood Road (Park Avenue),54.601218,-5.878173
700000000143,St Mark's,54.603470,-5.874979
700000000144,Grosvenor Road Rec. Centre,54.595301,-5.944552
700000000145,Clonaver,54.604911,-5.872931
700000000146,184 Grosvenor Road,54.595206,-5.947191
700000000147,Tudordale,54.606999,-5.870357
700000000148,Grosvenor Road 210,54.595116,-5.949692
700000000149,Garnerville Road,54.615112,-5.860219
700000000151,55 Garnerville Road,54.614785,-5.856655
700000000152,Royal Hospitals (Grosvenor Road),54.595459,-5.953225
700000000153,Upper Garnaville Road,54.614801,-5.852767
700000000154,Springfield Road - Inner Zone,54.596054,-5.956195
700000000155,Tudordale,54.607210,-5.869680
700000000156,Iris Street,54.597226,-5.958028
700000000157,Old Holywood Road,54.612617,-5.852436
700000000158,Blackstaff Bar,54.598893,-5.959600
700000000159,Glenmillan,54.610535,-5.852580
700000000160,Springfield Road,54.599904,-5.960566
700000000161,Old Holywood Road.,54.609131,-5.851208
700000000162,Elswick Street,54.601617,-5.963180
700000000163,82 Old Holywood Road,54.607904,-5.851045
700000000164,Pollard Street,54.602192,-5.965110
700000000165,Cairnburn Road,54.606232,-5.854110
700000000166,Springdale,54.600853,-5.969193
700000000167,C I Y M S,54.605416,-5.860245
700000000168,Farset Int.,54.599475,-5.971724
700000000169,Circular Road,54.604364,-5.863615
700000000170,West Circular (Springfield),54.599327,-5.973506
700000000171,Circular Road,54.606175,-5.870821
700000000172,Springfield Parade,54.601383,-5.974419
700000000173,Station Road,54.605824,-5.871392
700000000174,West Circular Flats,54.603971,-5.974749
700000000175,Clonaver,54.604382,-5.873454
700000000176,West Circular Crescent,54.605238,-5.974516
700000000177,St Mark's,54.602865,-5.875618
700000000178,Ballygomartin Bapist Church,54.607224,-5.973765
700000000179,Holywood Road (Park Avenue),54.601076,-5.878113
700000000180,Twaddell Avenue,54.610082,-5.967521
700000000181,Strandtown,54.599292,-5.883256
700000000182,The Avenue,54.611875,-5.967416
700000000183,Bloomfield Commercial Centre,54.597446,-5.893953
700000000184,The Cabin,54.613422,-5.964948
700000000185,Hornby Street,54.596898,-5.896163
700000000186,The Cabin,54.612739,-5.966044
700000000187,Avoniel,54.596255,-5.898239
700000000188,Woodvale Parade,54.611578,-5.967140
700000000189,Templemore Avenue,54.595253,-5.901999
700000000191,Bretland House,54.621834,-5.913815
700000000193,The Mount,54.595130,-5.906077
700000000195,Short Strand (Albert Bridge Road),54.595531,-5.909538
700000000197,Maysfield,54.595614,-5.915850
700000000198,RVH Stores,54.590561,-5.958047
700000000199,East Bridge Street (Central Station),54.595531,-5.917871
700000000200,Childrens Hospital,54.592443,-5.956340
700000000201,Gelstons Corner,54.600612,-5.877712
700000000202,RVH Maternity Ward,54.593228,-5.954341
700000000203,Ranfurly Drive,54.600234,-5.874903
700000000204,Institute Of Pathology,54.594703,-5.951588
700000000207,98 Belmont Road,54.599847,-5.871567
700000000208,Springvale (West Circular Road),54.599503,-5.971959
700000000209,126 Belmont Road,54.599594,-5.869344
700000000210,Springvale Parade,54.600183,-5.970445
700000000211,Belmont Church Road,54.599648,-5.865120
700000000212,Springvale Campus,54.601572,-5.968659
700000000213,Pine Lodge,54.600031,-5.863003
700000000214,Workman Avenue,54.602424,-5.965721
700000000215,212 Belmont Road,54.600564,-5.858422
700000000216,Lanark Way,54.601508,-5.962673
700000000218,Springfield Road 197,54.599831,-5.960341
700000000219,Campbell College,54.601182,-5.853709
700000000220,Blackstaff Bar,54.598948,-5.959543
700000000221,Schomberg Avenue,54.603113,-5.852358
700000000222,Peter Pan Complex,54.597838,-5.958289
700000000223,2 Massey Avenue,54.605168,-5.847998
700000000224,Grosvenor Road (Royal Hospital),54.595668,-5.953695
700000000225,Netherleigh Mews,54.604352,-5.846511
700000000226,Grosvenor Road Surgery,54.595196,-5.950272
700000000227,Massey Avenue (Castlehill Road),54.604064,-5.844269
700000000228,Grosvenor Road Post Office,54.595259,-5.947769
700000000229,Cloverhill Gardens,54.603583,-5.841559
700000000230,Cullingtree Road,54.595349,-5.946136
700000000231,42 Massey Avenue,54.602462,-5.838913
700000000232,Grosvenor Road PSNI Station,54.595723,-5.938784
700000000233,Parliament Buildings,54.603405,-5.832139
700000000235,I T Division,54.600330,-5.827295
700000000236,Dargan Road,54.629559,-5.897940
700000000237,Castle Buildings,54.598602,-5.828481
700000000239,Sports Ground,54.597207,-5.828799
700000000240,Europa Stand One,54.594915,-5.936259
700000000241,Dundonald House,54.595517,-5.827076
700000000242,Ballygomartin Pres Lecture Hall,54.607797,-5.973279
700000000243,Craigantlet Buildings,54.597055,-5.827623
700000000244,Ballygomartin Baptist Church,54.606810,-5.973756
700000000245,Castle Buildings,54.598707,-5.828583
700000000246,West Circular Crescent,54.605770,-5.974197
700000000247,Dept of Agriculture,54.600969,-5.827572
700000000248,West Circular Road 117,54.604266,-5.974545
700000000249,Parliament Buildings,54.603224,-5.832184
700000000250,West Circular Road Flat 8,54.602486,-5.974511
700000000251,Stormont (Massey Avenue Gates),54.602283,-5.838601
700000000252,West Circular Road 59,54.600962,-5.974099
700000000253,15 Massey Avenue,54.603297,-5.841207
700000000255,Castlehill Road (Massey Avenue),54.603932,-5.844442
700000000256,J P Corry,54.597561,-5.976339
700000000257,Massey Green,54.604846,-5.849362
700000000258,Springfield Park,54.597523,-5.979944
700000000259,Old Holywood Road,54.604039,-5.850974
700000000260,712 Springfield Road.,54.596812,-5.983499
700000000261,Schomberg Avenue,54.603062,-5.852292
700000000262,Divismore Crescent,54.594765,-5.986939
700000000263,Campbell College,54.601725,-5.853017
700000000264,Mount Alverno Garage,54.592918,-5.990042
700000000265,Ormiston,54.600215,-5.859768
700000000266,Whiterock Business Park,54.591865,-5.991147
700000000267,Strathearn Court,54.599755,-5.864046
700000000268,Turf Lodge Shops,54.589721,-5.992873
700000000269,Belmont Primary School,54.599354,-5.866440
700000000270,Monagh Road,54.586613,-5.991686
700000000271,Belmont Park,54.599422,-5.868537
700000000272,Aitnamona Crescent,54.583907,-5.991359
700000000273,139 Belmont Road,54.599939,-5.872893
700000000274,Monagh By-Pass (Glen Road),54.582174,-5.989362
700000000275,Belmont Road (Gelstons Corner),54.600311,-5.876429
700000000277,Botanic Avenue (Shaftsbury Square),54.589080,-5.933450
700000000279,Botanic Avenue,54.586982,-5.932427
700000000281,College Green,54.584849,-5.931911
700000000283,Rugby Road,54.584737,-5.929252
700000000285,Dudley Street,54.585022,-5.926849
700000000286,Monagh By-Pass (Glen Road),54.582190,-5.989983
700000000287,University Avenue,54.585440,-5.923684
700000000288,Aitnamona Crescent,54.583842,-5.991693
700000000289,Ormeau Road (Agincourt Avenue),54.584067,-5.922220
700000000290,Monagh Road,54.586521,-5.991723
700000000291,Ormeau Park,54.581800,-5.921398
700000000292,Monagh Road Shops,54.589873,-5.992919
700000000293,Candahar Street,54.580532,-5.920564
700000000294,Mount Alverno Garage,54.592723,-5.990503
700000000295,South Parade,54.578915,-5.919386
700000000296,New Barnsley Parade,54.594765,-5.987203
700000000297,Ulidia,54.577197,-5.917998
700000000298,665 Springfield Road.,54.595637,-5.985584
700000000299,Ballynafeigh,54.574277,-5.915968
700000000300,651 Springfield Road.,54.596642,-5.984010
700000000301,Nazareth House,54.572367,-5.914701
700000000302,Springfield Park,54.597640,-5.979925
700000000303,Rosetta (St John's Church),54.569673,-5.913746
700000000304,Whiterock Orange Hall,54.598352,-5.974697
700000000305,Hampton Park,54.567076,-5.913404
700000000306,St. Aiden's,54.593905,-5.987103
700000000308,Whiterock Leisure Centre,54.592922,-5.984730
700000000310,Ballymurphy Road,54.591810,-5.982174
700000000311,Forestside,54.564645,-5.911252
700000000312,Whiterock Belfast Met. College,54.591144,-5.980560
700000000313,Forster Green,54.560842,-5.908999
700000000314,St. Maria Goretti Nursery Sch,54.590757,-5.976728
700000000315,Saintfield Road (Mt.Oriel),54.558667,-5.908930
700000000316,Brittons Parade,54.590426,-5.974233
700000000317,Woodbreda,54.554026,-5.908408
700000000318,Whiterock Road,54.589242,-5.971392
700000000319,Beechill Park,54.551701,-5.908541
700000000320,Brittons Parade,54.590483,-5.975215
700000000321,Saintfield Road (Glenhugh Park),54.548839,-5.906102
700000000322,St. Maria Goretti Nursery Sch,54.590750,-5.977238
700000000323,Forestside (Knockbreda Cemetry),54.562933,-5.910252
700000000324,Whiterock Belfast Met. College,54.590952,-5.980092
700000000325,Cromac Wood,54.591431,-5.925592
700000000326,Ballymurphy Road,54.591577,-5.981873
700000000328,Whiterock Library,54.593418,-5.986064
700000000329,Shaftesbury Avenue,54.587061,-5.923623
700000000330,Finaghy Road North,54.569682,-5.992629
700000000331,Hatfield Street,54.585707,-5.922935
700000000332,Finaghy Road North,54.569432,-5.992574
700000000333,Rosetta (Knockbreda Road),54.570387,-5.911957
700000000334,Shaw's Road (Stewartstown Road),54.573862,-6.000578
700000000335,Knock Eden,54.571339,-5.909216
700000000336,Rosgoill Park,54.574439,-6.002709
700000000337,Mount Merrion Park,54.571557,-5.905258
700000000338,Shaw's Road (Hillhead Cottages),54.575432,-6.004494
700000000339,Wynchurch,54.571517,-5.903428
700000000340,Shaw's Road (Lenadoon Avenue),54.576603,-6.009331
700000000341,"Mount Merrion, Rosetta Road",54.570986,-5.901504
700000000342,Shaw's Road (Lenadoon Avenue),54.576680,-6.009989
700000000343,"Mount Merrion, Rosetta Road",54.570754,-5.901172
700000000344,Shaw's Road (Hillhead Cottages),54.575608,-6.004619
700000000345,Wynchurch,54.571465,-5.903918
700000000346,Shaw's Road (Stewartstown Road),54.574063,-6.001031
700000000347,Knock Eden,54.571347,-5.908427
700000000348,St Michael's,54.571894,-5.994812
700000000349,Rosetta (Knockbreda Road),54.570316,-5.912755
700000000350,Bell Steel Road (Stewartstown Road),54.557006,-6.026331
700000000351,Glendale Park,54.556665,-5.908011
700000000352,Bell Steel Road (Woodside),54.556447,-6.030144
700000000353,Cairnshill Court,54.547194,-5.903856
700000000354,Bell Steel Road (Brian's Well Road),54.559163,-6.031511
700000000355,Finsbury,54.549281,-5.900760
700000000356,Bell Steel Road (Glenwood),54.560420,-6.030212
700000000357,Cairnshill Park,54.550288,-5.898551
700000000358,Bell Steel Road (Laurelbank),54.562125,-6.028709
700000000359,Malvern,54.552108,-5.895646
700000000361,Four Winds (Ballymaconaghy Road),54.556280,-5.892330
700000000363,Glendale,54.558082,-5.905609
700000000364,Suffolk Road (Woodbourne),54.568237,-6.013431
700000000365,Newton Park(Colby),54.557272,-5.903118
700000000366,Riverside Mews,54.569676,-6.014780
700000000367,Glenholm,54.556638,-5.900473
700000000368,Falcarragh,54.570922,-6.016543
700000000369,Four Winds Park,54.556215,-5.896316
700000000370,Donegal Celtic,54.573718,-6.021711
700000000371,Four Winds Park,54.556169,-5.896621
700000000372,Suffolk Heights,54.574728,-6.024055
700000000373,Glenholm,54.556583,-5.900514
700000000374,Hannahstown Hill,54.575914,-6.023568
700000000375,Newton Park(Colby),54.557085,-5.902527
700000000376,Glencolin,54.576168,-6.019429
700000000377,Glendale,54.557768,-5.905316
700000000378,St. Oliver Plunkett,54.576210,-6.017622
700000000379,Forestside,54.562595,-5.909833
700000000380,Shaw's Road (Glen Road),54.576480,-6.014397
700000000381,Malvern,54.551875,-5.895623
700000000382,Rosnareen,54.578382,-6.006131
700000000383,Cairnshill Park,54.550484,-5.897780
700000000384,Hamill Grove,54.578998,-6.003559
700000000385,Finsbury,54.549113,-5.900945
700000000386,CBS,54.580173,-5.998766
700000000387,Beechill Park,54.552207,-5.909023
700000000388,Coolnasilla,54.580775,-5.995775
700000000389,Forster Green,54.562332,-5.908801
700000000390,Glen Road (St.Theresa's),54.580853,-5.990688
700000000391,Forestside,54.565001,-5.908871
700000000392,Gransha Shops,54.583017,-5.985357
700000000393,Forestside,54.565021,-5.909075
700000000394,Glen Parade,54.583817,-5.981006
700000000395,Forestside (Upper Galwally),54.565048,-5.909356
700000000396,Millfield,54.599548,-5.937326
700000000397,Cainshill Court,54.547133,-5.903788
700000000398,Divis Tower,54.600145,-5.942480
700000000399,Top Of The Hill,54.547805,-5.905523
700000000400,St Michael's,54.571752,-5.994488
700000000401,Saintfield Road (Glenhugh Park),54.549210,-5.906570
700000000403,Woodbreda,54.554111,-5.908556
700000000404,Stewartstown Road (Lagmore Dale),54.548888,-6.028377
700000000405,Saintfield Road (Mount Oriel),54.558648,-5.909238
700000000406,Stewartstown Road (Lagmore Avenue),54.551599,-6.027731
700000000407,Breda Park,54.559864,-5.909478
700000000408,Stewartstown Road (Lagmore grove),54.552959,-6.027386
700000000409,Hampton Park,54.565812,-5.912710
700000000410,Stewartstown Road (Twinbrook Road),54.554391,-6.027079
700000000411,Annadale Avenue,54.568823,-5.913866
700000000412,Stewartstown Road (Glasvey Park),54.556114,-6.026119
700000000413,Rosetta (St John's Church),54.570461,-5.914116
700000000414,Stewartstown Road (Health Centre),54.559473,-6.023541
700000000415,Nazareth House,54.573354,-5.915586
700000000416,Stewartstown Road (Dairy Farm),54.561764,-6.021461
700000000417,Ballynafeigh,54.574576,-5.916461
700000000418,Stewartstown Road,54.562738,-6.020582
700000000419,Ulidia,54.576828,-5.918025
700000000420,Glengoland (Roundabout),54.564087,-6.019508
700000000421,South Parade,54.578425,-5.919262
700000000422,Stewartstown Road (Dairy Farm),54.561372,-6.021639
700000000423,Candahar Street,54.580698,-5.920982
700000000424,Stewartstown Road (Health Centre),54.559119,-6.023645
700000000425,Ormeau Road (Agincourt Avenue),54.583826,-5.922429
700000000426,Stewartstown Road (Glasvey Park),54.556027,-6.026033
700000000427,Hatfield Street,54.585701,-5.923136
700000000428,Stewartstown Road (Twinbrook Road),54.554044,-6.026967
700000000429,McClure Street,54.587836,-5.924131
700000000430,Stewartstown Road (Lagmore Avenue),54.551884,-6.027528
700000000431,Gasworks,54.590820,-5.925580
700000000432,Broom Park,54.547566,-6.028386
700000000433,Cromac Wood,54.591574,-5.925900
700000000434,Creighton Mews,54.546272,-6.027809
700000000435,University Avenue,54.585252,-5.924207
700000000436,Helen's Wood,54.565533,-6.015517
700000000437,Dudley Street,54.585002,-5.926088
700000000438,Stewartstown Road (Woodbourne),54.567087,-6.012327
700000000439,Rugby Road,54.584623,-5.929737
700000000440,Stewartstown Road (Doon Road),54.568587,-6.008852
700000000441,College Green,54.585312,-5.932606
700000000442,Suffolk Avenue,54.570423,-6.005829
700000000443,Botanic Avenue,54.587854,-5.932975
700000000444,Hillhead Crescent,54.571107,-6.003109
700000000445,Botanic Avenue (Shaftsbury Square),54.588985,-5.933595
700000000446,St Genevieve's,54.572453,-6.000470
700000000447,Short Strand (Ravenhill Road),54.595248,-5.911060
700000000448,Stewartstown Road (Shaw's Road),54.573304,-5.997860
700000000449,Shamrock Street,54.592888,-5.910895
700000000450,Andersonstown Road (Slievegallion Drive),54.573246,-5.991182
700000000451,My Lady's Road,54.591263,-5.910228
700000000452,Owenvarragh Pk,54.574090,-5.986326
700000000453,216 Ravenhill Road,54.589855,-5.910387
700000000454,Fruithill,54.575904,-5.982060
700000000455,252 Ravenhill Road,54.588299,-5.910672
700000000456,Fruithill Park,54.576858,-5.980652
700000000457,51 Ravenhill Road,54.586089,-5.911141
700000000458,Westwood Centre,54.578796,-5.979726
700000000460,Kennedy Centre,54.580413,-5.980333
700000000461,454 Ravenhill Road,54.580413,-5.912284
700000000462,Milltown Cemetery,54.582546,-5.979442
700000000463,Ravenhill Park,54.579272,-5.912531
700000000464,Milltown Cemetery,54.583197,-5.979072
700000000465,Aquinas Grammar School,54.576990,-5.913009
700000000466,Kennedy Centre,54.581366,-5.979791
700000000467,Cherryvale Park,54.574493,-5.913466
700000000468,Andersonstown Park,54.579913,-5.979944
700000000469,694 Ravenhill Road,54.572338,-5.913925
700000000470,Westwood Centre,54.577785,-5.979566
700000000471,Ravenhill Road (Ormeau Road),54.572642,-5.913985
700000000472,Fruithill Park,54.576623,-5.980691
700000000473,St Jude's Cresent,54.575149,-5.913498
700000000474,Fruithill,54.575724,-5.982043
700000000475,187 Ravenhill Road,54.576814,-5.913177
700000000476,Owenvarragh Pk,54.574121,-5.985927
700000000478,Andersonstown Road (Slievegallion Drive),54.573208,-5.990420
700000000480,Ballyowen,54.572925,-5.993829
700000000482,Stewartstown Road (Shaw's Road),54.572950,-5.996603
700000000484,St Genevieve's,54.572142,-6.000641
700000000485,Kids Korner,54.580046,-5.912512
700000000486,Hillhead Crescent,54.570788,-6.004053
700000000487,Martyrs Memorial,54.583994,-5.911699
700000000488,Suffolk Library,54.569232,-6.007569
700000000489,BP Garage,54.585595,-5.911403
700000000490,Stewartstown Road (Woodbourne),54.567826,-6.010372
700000000491,Park Resource Centre,54.587298,-5.911025
700000000492,Glengoland (Roundabout),54.564394,-6.017557
700000000493,Rochester Street,54.589154,-5.910661
700000000495,My Lady's Road,54.590929,-5.910289
700000000496,Twin Spires,54.599325,-5.947218
700000000497,97 Ravenhill Road,54.592059,-5.910645
700000000498,Conway Street,54.598588,-5.950477
700000000499,Short Strand,54.595566,-5.911787
700000000501,Mount Conference Centre,54.594547,-5.907151
700000000502,Dunville Park,54.596723,-5.954169
700000000503,Woodstock Link,54.593419,-5.906408
700000000504,Falls Park,54.584506,-5.977853
700000000505,Isthmus Street,54.591986,-5.903746
700000000506,Rossa House,54.585675,-5.974002
700000000507,Willowfield,54.590536,-5.902415
700000000508,Falls Road (City Cemetry),54.587338,-5.971300
700000000509,Redcar Street,54.587685,-5.900454
700000000510,Falls Road (St.James's),54.589722,-5.968822
700000000511,Loopland,54.585304,-5.899282
700000000512,Beechview Park,54.590689,-5.967599
700000000513,340 Belmont Road,54.604617,-5.850053
700000000514,Ard-Na-Va,54.591371,-5.965714
700000000515,Courtney Hall,54.583537,-5.898555
700000000516,Beechmount,54.592291,-5.961793
700000000517,Ardenlee,54.582099,-5.897969
700000000518,St Mary's College,54.593003,-5.959833
700000000519,Bell's Bridge,54.579876,-5.897183
700000000520,Childrens Hospital,54.593663,-5.958085
700000000521,Montgomery Road,54.576986,-5.896164
700000000522,Falls Road (Royal Hospitals),54.595247,-5.955559
700000000523,Greenway,54.575278,-5.895583
700000000524,Dunville Park,54.596775,-5.954220
700000000525,Somme Drive,54.573473,-5.894946
700000000526,Falls Library,54.598245,-5.952179
700000000527,Cregagh Library,54.571776,-5.894304
700000000528,Twin Spires,54.599224,-5.948107
700000000531,Cregagh Park,54.571031,-5.893970
700000000532,Divis Tower,54.600356,-5.942888
700000000533,Beechgrove Drive,54.568412,-5.896537
700000000534,Barrack Street,54.599728,-5.937065
700000000535,Knockbreda High School,54.566022,-5.902887
700000000536,Little George Street,54.605580,-5.928009
700000000537,Knockbreda High School,54.566004,-5.903427
700000000538,Yorkgate Station,54.608881,-5.924702
700000000539,Rosetta Road,54.568334,-5.897567
700000000540,York Street (St Paul's),54.612081,-5.923631
700000000541,Cregagh Park,54.570139,-5.893745
700000000542,Mountcollyer,54.614932,-5.924464
700000000543,The Straight,54.572668,-5.894792
700000000544,Grove Baths,54.617977,-5.923750
700000000545,Hamel Drive,54.574528,-5.895418
700000000546,Bute Street,54.618862,-5.923370
700000000547,Greenway,54.576012,-5.895963
700000000548,Skegoneill Ave,54.621843,-5.923503
700000000549,Bell's Bridge,54.578022,-5.896681
700000000550,Seaview,54.623463,-5.922930
700000000551,157 Mount Merrion Avenue,54.578338,-5.899142
700000000552,York Park,54.625258,-5.923305
700000000553,137 Mount Merrion Avenue,54.577968,-5.900841
700000000554,Shore Road (Safeway),54.627186,-5.923754
700000000555,101 Mount Merrion Avenue,54.576902,-5.902380
700000000556,Fortwilliam,54.629262,-5.923257
700000000557,77 Mount Merrion Avenue,54.575687,-5.902434
700000000558,Mount Vernon,54.631815,-5.923022
700000000559,Mount Merrion Avenue,54.574114,-5.902949
700000000560,Lowwood Park,54.633529,-5.923125
700000000561,Mounr Merrion Avenue,54.572753,-5.904444
700000000562,Loughside,54.634772,-5.923369
700000000563,20 Mount Merrion Avenue,54.572059,-5.905600
700000000564,Donegall Park Avenue,54.637370,-5.923387
700000000565,Mount Merrion Avenue,54.573953,-5.903212
700000000566,Shore Crescent,54.639440,-5.923339
700000000567,Mount Merrion Church,54.576417,-5.902643
700000000568,Parkmount,54.640749,-5.923201
700000000569,150 Mount Merrion Avenue,54.577850,-5.901449
700000000570,Shore Road (Grays Lane),54.643259,-5.922063
700000000571,Willowbrook House,54.578492,-5.898274
700000000572,Greencastle,54.645252,-5.920519
700000000573,Onslow,54.579978,-5.897379
700000000574,M2 Onslip,54.647432,-5.919845
700000000575,Ardenlee,54.581569,-5.897965
700000000576,Bawnmore,54.649881,-5.918933
700000000577,Glendower Street,54.583843,-5.898832
700000000578,Whitehouse,54.652559,-5.916213
700000000579,Ravenhill Avenue,54.585795,-5.899654
700000000580,Whitehouse,54.652571,-5.915858
700000000581,Omeath Street,54.588572,-5.901112
700000000582,Bawnmore,54.649943,-5.918691
700000000583,Willowfield Crescent,54.589636,-5.901864
700000000584,Shore Road (Grays Lane),54.642053,-5.922366
700000000585,Cherryville Street,54.592607,-5.904565
700000000586,Parkmount,54.640323,-5.923036
700000000587,Woodstock Lodge,54.594640,-5.907315
700000000588,Shore Crescent,54.638306,-5.923369
700000000589,Locksley House,54.578979,-5.877838
700000000590,Donegall Park Avenue,54.637312,-5.923242
700000000591,Robinson Centre,54.577663,-5.882667
700000000592,Loughside,54.635243,-5.923244
700000000593,Stirling Avenue,54.577296,-5.887927
700000000594,Lowwood Park,54.632429,-5.922957
700000000595,Castlereagh College,54.577513,-5.892917
700000000596,Mount Vernon,54.630720,-5.922390
700000000597,Castlereagh College,54.577446,-5.894459
700000000598,Shore Road (Safeway),54.627873,-5.923650
700000000599,Stirling Avenue,54.577283,-5.888885
700000000600,York Drive,54.625637,-5.923279
700000000601,Robinson Centre,54.577784,-5.883112
700000000603,Locksley House,54.578815,-5.878178
700000000604,Seaview,54.624146,-5.922950
700000000605,Castledona,54.576634,-5.876082
700000000606,Skegoneill,54.621105,-5.923540
700000000607,Glensharragh,54.574682,-5.880572
700000000608,Fife Street,54.619883,-5.923500
700000000609,Lisnasharragh,54.572812,-5.884186
700000000610,Ivan Street,54.617579,-5.923820
700000000611,McCaughan Park,54.571486,-5.886537
700000000612,Mountcollyer,54.615236,-5.924245
700000000613,St Finnian's Church,54.569924,-5.892053
700000000615,Stirling Avenue,54.571756,-5.886532
700000000616,York Street (St Paul's),54.611991,-5.923359
700000000617,Rochester Road,54.573318,-5.883832
700000000618,Yorkgate Station,54.610682,-5.922954
700000000619,Clonduff Drive,54.575370,-5.879584
700000000620,Yorkgate,54.609952,-5.924402
700000000621,Carncaver Road,54.577011,-5.875824
700000000622,Upper Canning Street,54.612036,-5.926695
700000000623,Knock Road,54.579791,-5.871304
700000000624,Cosgrave Street,54.614016,-5.926374
700000000626,90 Limestone Road,54.614881,-5.927961
700000000627,127 Knock Road,54.586722,-5.859295
700000000628,Newington Pres Church,54.615651,-5.930561
700000000629,Marie Curie Centre,54.587883,-5.857005
700000000630,Lawther Street,54.616210,-5.932180
700000000631,Knock Headquarters,54.589695,-5.856046
700000000632,Atlantic Avenue,54.617182,-5.934661
700000000633,Knock Headquarters,54.589484,-5.855871
700000000634,Limestone Road (Antrim Road),54.618285,-5.937511
700000000635,Marie Curie Centre,54.587724,-5.857207
700000000636,Waterworks,54.619194,-5.939443
700000000637,Knockvale Park,54.586939,-5.858681
700000000638,Richmond Square,54.620169,-5.940978
700000000639,Short Strand,54.599197,-5.911873
700000000640,Rosemount Gardens,54.620829,-5.941678
700000000641,Mountpottinger Road,54.598264,-5.909568
700000000642,Marsden Terrace,54.622205,-5.942524
700000000643,Madrid Street,54.596379,-5.907234
700000000645,Castlereagh Street (Albertbridge Road),54.594816,-5.904374
700000000646,Madison Avenue,54.624906,-5.943266
700000000647,Paxton Street,54.593619,-5.901905
700000000648,Westland Road,54.626611,-5.943664
700000000649,John Long's Corner,54.592318,-5.899302
700000000650,Inver Avenue,54.628380,-5.944300
700000000651,Clara Street,54.590648,-5.897547
700000000652,120 Cavehill Road,54.630200,-5.945577
700000000653,Channing Street,54.588726,-5.896047
700000000654,Bonaparte's,54.632966,-5.947628
700000000656,Sunningdale Park,54.632723,-5.951496
700000000657,Loopland Park,54.586195,-5.891717
700000000658,Kilcoole Park,54.632033,-5.956638
700000000659,Ladas Drive,54.585393,-5.890077
700000000660,Carr's Glen (Joanmount),54.630479,-5.961231
700000000661,Eastside Park & Ride,54.600326,-5.911981
700000000662,Boys' Model School,54.631497,-5.959826
700000000663,Orby Place,54.583841,-5.886615
700000000664,Kilcoole Park,54.632081,-5.956798
700000000665,Houston Park,54.582242,-5.882917
700000000666,Slievedarragh Park,54.633045,-5.949884
700000000668,Shandarragh Park,54.632166,-5.947318
700000000669,Orby Street,54.580729,-5.879351
700000000670,Henderson Avenue,54.630685,-5.945872
700000000671,Montgomery Road,54.579435,-5.876209
700000000672,Inver Avenue,54.628146,-5.944029
700000000673,Clonduff,54.578725,-5.874531
700000000674,Charnwood Avenue,54.627046,-5.943566
700000000675,Brentwood Park,54.577714,-5.871571
700000000676,Westland Road,54.625149,-5.943243
700000000677,Ballygowan Road,54.575885,-5.868564
700000000678,Kansas Avenue,54.623798,-5.943035
700000000679,Glen Road,54.576744,-5.866463
700000000680,Parkview Lodge,54.622379,-5.942432
700000000681,Roddens Gardens,54.579181,-5.865904
700000000682,Rosemount Gardens,54.620712,-5.941434
700000000683,Whincroft Road,54.581102,-5.866303
700000000684,Limestone Road (Antrim Road),54.618533,-5.937922
700000000685,Glen Rise,54.579935,-5.863979
700000000686,Atlantic Avenue,54.617617,-5.935664
700000000687,The Square,54.579146,-5.861922
700000000688,Currie Primary School,54.616110,-5.931659
700000000689,Ravenswood Park,54.577855,-5.858982
700000000690,Cosgrave Heights,54.615085,-5.928353
700000000691,Creevy Avenue,54.577933,-5.854020
700000000692,Mervue Street,54.613354,-5.926249
700000000693,Braniel Church,54.578436,-5.851498
700000000694,Upper Canning Street,54.612170,-5.926429
700000000695,Woodview Drive,54.579363,-5.850641
700000000696,Yorkgate,54.610283,-5.924729
700000000697,Braniel (Farmhurst Green),54.580358,-5.849032
700000000699,178 Lower Braniel Road,54.580493,-5.845359
700000000700,Mountcollyer Road,54.615393,-5.926321
700000000701,Briarwood Park,54.582275,-5.840790
700000000702,Castleton Avenue,54.616912,-5.925522
700000000704,72 Alexandra Park Avenue,54.618000,-5.927487
700000000706,Elim Christian Centre,54.618548,-5.929446
700000000708,3 Jellicoe Avenue,54.619795,-5.931473
700000000710,Grove Playing Fields,54.621665,-5.930940
700000000712,Skegoneill Drive,54.623321,-5.931720
700000000714,Somerton Inn,54.625009,-5.933201
700000000715,293 Lower Braniel Road,54.582608,-5.840233
700000000716,Somerton Road (Hospice),54.626346,-5.933842
700000000717,237 Lower Braniel Road,54.580228,-5.846062
700000000718,Somerton Road (Fortwilliam Park),54.628395,-5.935001
700000000719,Woodview Drive,54.579350,-5.850485
700000000720,Dominican College,54.630465,-5.935511
700000000721,Braniel Church,54.578276,-5.851730
700000000722,96 Somerton Road,54.632121,-5.935206
700000000723,Creevy Avenue,54.577846,-5.854476
700000000724,Landsdowne Road,54.634376,-5.934153
700000000725,Braniel Primary School,54.577770,-5.859392
700000000726,Glastonbury Avenue,54.635679,-5.933628
700000000727,The Square,54.578747,-5.862333
700000000728,Castle Avenue,54.637333,-5.933384
700000000729,Glen Rise,54.580084,-5.864395
700000000730,Donegall Park Avenue,54.638580,-5.929877
700000000731,Whincroft Road,54.581040,-5.866267
700000000732,Downview Avenue,54.640164,-5.929580
700000000733,Roddens Gardens,54.578782,-5.865727
700000000734,Downview,54.639628,-5.932505
700000000735,Glen Road,54.576497,-5.866579
700000000736,Donegall Park Avenue,54.638074,-5.933022
700000000737,Ballygowan Road,54.575585,-5.868660
700000000738,Castle Avenue,54.637162,-5.933399
700000000739,Brentwood Park,54.577537,-5.871461
700000000740,Glastonbury Avenue,54.635190,-5.933751
700000000741,Clonduff,54.578579,-5.874595
700000000742,Landsdowne Road,54.633787,-5.934313
700000000743,Marshalls Road,54.581356,-5.881377
700000000744,Somerton Park,54.632370,-5.934997
700000000745,Orangefield Cres.,54.582600,-5.884097
700000000746,Dominican College,54.630378,-5.935409
700000000747,Trigo Parade,54.583776,-5.886686
700000000748,Somerton Road (Fortwilliam Park),54.627601,-5.934536
700000000749,Ladas Drive,54.585392,-5.890386
700000000750,Somerton Road (Hospice),54.626430,-5.933757
700000000751,Loopland,54.586606,-5.892903
700000000752,Somerton Inn,54.624570,-5.933158
700000000754,Fortwilliam Parade,54.623414,-5.931621
700000000755,Ardgowan Street,54.588940,-5.896393
700000000756,Grove Playing Fields,54.621405,-5.930900
700000000757,Clara Street,54.590392,-5.897678
700000000758,Alexandra Park Avenue,54.619572,-5.931420
700000000759,John Long's Corner,54.591937,-5.899111
700000000760,145 Alexandra Park Avenue,54.618777,-5.929856
700000000761,Paxton Street,54.593672,-5.902220
700000000762,41 Alexandra Park Avenue,54.617861,-5.926203
700000000763,Castlereagh Street (Albertbridge Road),54.594735,-5.904381
700000000764,Castleton Avenue,54.616617,-5.925463
700000000765,The Green,54.595752,-5.906322
700000000766,Mountcollyer,54.615362,-5.926194
700000000767,Mountpottinger Road,54.596914,-5.908199
700000000769,Short Strand (Mountpottinger),54.598318,-5.910936
700000000770,Cairnburn Gardens No 36,54.607165,-5.851642
700000000771,Scirocco Works,54.598904,-5.912294
700000000773,Old Holywood Road (Kennelbridge) Outside No 116,54.610107,-5.852478
700000000774,Arthur Road,54.654482,-5.927349
700000000775,Pottinger Street,54.592695,-5.903210
700000000776,McIlroy Court,54.654546,-5.927898
700000000777,Calvin Street,54.592741,-5.901232
700000000778,Longlands Road,54.656022,-5.921759
700000000779,Trillick Street,54.592568,-5.899063
700000000780,Abbeycentre,54.657154,-5.918750
700000000781,Avoniel Road,54.591977,-5.896219
700000000782,Abbeycentre,54.656548,-5.916908
700000000783,Elmgrove,54.591637,-5.892516
700000000784,Abbeycentre,54.654918,-5.919760
700000000785,Bloomfield Mill,54.592768,-5.889526
700000000786,Longlands Road,54.655828,-5.921911
700000000787,Bloomfield Road (St Donard's),54.593443,-5.886137
700000000789,Lichfield Avenue,54.592484,-5.883521
700000000791,Bloomfield,54.591369,-5.880441
700000000792,North Street,54.602285,-5.932540
700000000793,North Road,54.593620,-5.876149
700000000794,Peter's Hill,54.603138,-5.936728
700000000795,Cypress Gardens,54.595289,-5.875440
700000000796,Lower Shankill,54.603553,-5.941942
700000000797,Orangefield Road,54.592514,-5.877267
700000000798,Agnes Street,54.603875,-5.946389
700000000799,Bloomfield Roundabout,54.591294,-5.880806
700000000800,Shankill Road (Co-op),54.604047,-5.949659
700000000801,Litchfield Avenue,54.592544,-5.883914
700000000802,Berlin Street,54.604213,-5.952309
700000000803,Holycroft Avenue,54.593179,-5.888203
700000000804,Tennent Street,54.604327,-5.954303
700000000805,Abetta Parade,54.592173,-5.890414
700000000806,Glenwood Street,54.604434,-5.955986
700000000807,Elmgrove,54.591563,-5.892880
700000000808,Mayo Street,54.605704,-5.959518
700000000809,Clara Street,54.591682,-5.895323
700000000810,Woodvale Avenue,54.606909,-5.961975
700000000811,Trillick Street,54.592306,-5.898264
700000000812,Woodvale Park,54.607882,-5.963030
700000000813,Calvin Street,54.592647,-5.901641
700000000814,Woodvale Park (Ballygomartin),54.609037,-5.964816
700000000815,Stock Brothers,54.594591,-5.868574
700000000816,Springhill Primary School,54.602828,-5.981903
700000000818,Ballygomartin (Highcliffe Gardens),54.604220,-5.980056
700000000819,King's Road,54.592663,-5.867570
700000000820,Ballymagarry Lane,54.605703,-5.978435
700000000821,Clara Park,54.590372,-5.864411
700000000822,Lyndhurst Gardens,54.607745,-5.974854
700000000824,Ballygomartin (West Circular Road),54.608842,-5.972699
700000000826,Ballygomartin (Glencairn Cres),54.609773,-5.970094
700000000828,Springhill Primary School,54.602742,-5.981771
700000000830,Springmartin Road,54.601655,-5.981742
700000000831,Clara Park,54.590474,-5.864854
700000000832,Woodvale Park (Ballygomartin),54.609504,-5.967046
700000000833,King's Road,54.592542,-5.867698
700000000834,Springmartin Road,54.601414,-5.981688
700000000836,Ballygomartin (Glencairn Cresc),54.609662,-5.969091
700000000837,Hewitt Parade,54.594198,-5.868506
700000000838,Ballygomartin (West Circular Road),54.608085,-5.973818
700000000839,24 Clarawood Park,54.584737,-5.865131
700000000840,Ballygomartin Road,54.606828,-5.976500
700000000842,Forthriver Road (Ballygomartin),54.610193,-5.972893
700000000843,13 Clarawood Estate,54.585525,-5.866909
700000000844,Forthriver Pass,54.612009,-5.974836
700000000845,117 Clarawood Park,54.585419,-5.869097
700000000846,Forthriver Scout Hall,54.613250,-5.976770
700000000847,Clarawood Flats,54.585559,-5.868956
700000000848,Forthriver Way,54.615344,-5.978726
700000000849,Clarawood Grove,54.586253,-5.870028
700000000850,Forthriver Drive,54.616594,-5.980367
700000000851,13 Clarawood Park,54.588067,-5.868714
700000000852,Glencairn Mission Hall,54.618609,-5.981990
700000000853,4 Clarawood Park,54.588128,-5.867914
700000000854,Forthriver Parade,54.620693,-5.984534
700000000855,10 Castlehill Road,54.595469,-5.845859
700000000856,Glencairn (Forthriver Road),54.621309,-5.984656
700000000857,Campbell College Grounds,54.598173,-5.845122
700000000858,Forthriver Dale,54.620027,-5.983182
700000000859,43 Castlehill Road,54.598448,-5.844947
700000000860,Glencairn Mission Hall,54.618921,-5.982067
700000000861,96 Castlehill Road,54.602730,-5.843787
700000000862,Forthriver Drive,54.616925,-5.980430
700000000863,123 Castlehill Road,54.602813,-5.843717
700000000864,Forthriver Way,54.614728,-5.977767
700000000866,Forthriver Scout Hall,54.613079,-5.976227
700000000867,Stoney Road,54.594885,-5.824306
700000000868,Forthriver Pass,54.612067,-5.974703
700000000869,Holywood Arches,54.597613,-5.887634
700000000870,Forthriver Road (Ballygomartin),54.610503,-5.972783
700000000871,Grampian Avenue,54.597233,-5.885476
700000000872,Mount Eden Court,54.610564,-5.963245
700000000873,Irwin Avenue,54.596517,-5.883115
700000000874,Woodvale Parade,54.611576,-5.963389
700000000875,Clonlee Drive,54.596193,-5.877803
700000000876,Woodvale Road,54.612623,-5.963817
700000000877,North Road,54.595767,-5.873983
700000000878,Ardoyne Shops,54.614524,-5.966171
700000000879,Castleview Terrace,54.595424,-5.870930
700000000881,Ballyhackamore,54.595306,-5.870702
700000000882,Everton Complex,54.615988,-5.968422
700000000883,North Road,54.596050,-5.876658
700000000884,Somerdale Park,54.616639,-5.969415
700000000885,Wynfield Court,54.596112,-5.878941
700000000886,Mercy Primary School,54.617549,-5.970743
700000000887,Beersbridge Road,54.596279,-5.882427
700000000888,Abbeydale Park,54.618251,-5.971835
700000000889,Holywood Arches,54.597447,-5.887494
700000000890,Wheatfield Gardens,54.619114,-5.973205
700000000891,Montgomery Road,54.579950,-5.877822
700000000892,Glenside Park,54.620567,-5.975501
700000000894,Crumlin Road (Glenbank Corner),54.622041,-5.976916
700000000895,Greenwood  Primary,54.594895,-5.860766
700000000896,28 Ligoniel Road,54.623782,-5.977303
700000000898,Ligoniel Park,54.624108,-5.979412
700000000899,Knock Road,54.594788,-5.857364
700000000900,78 Ligoniel Road,54.624977,-5.981993
700000000901,Hawthorden Court,54.594539,-5.851920
700000000902,Ligoniel Community Centre,54.625858,-5.983644
700000000903,Cabin Hill,54.594450,-5.849061
700000000904,Wolfhill Centre,54.627306,-5.985801
700000000905,Stormont Park,54.594484,-5.844589
700000000906,Ligoniel Place,54.628456,-5.987216
700000000907,Stormont,54.594567,-5.842258
700000000908,252 Ligoniel Road,54.629567,-5.988178
700000000909,Stormont Court,54.594743,-5.836730
700000000910,Wolfhill,54.631425,-5.989910
700000000911,Rosepark,54.594963,-5.831221
700000000912,297 Ligoniel Road,54.629398,-5.987836
700000000913,Dundonald House,54.594218,-5.826055
700000000914,Donegall Street,54.604327,-5.931157
700000000915,Dundonald Cemetery,54.594384,-5.819117
700000000916,Donegall Street,54.604951,-5.931884
700000000917,Comber Road,54.595021,-5.814871
700000000918,Clifton Street,54.605767,-5.933341
700000000919,Ulster Hospital,54.595005,-5.811679
700000000920,Carlisle Circus (Clifton Street),54.607103,-5.935949
700000000921,Ulster Hospital,54.595149,-5.811677
700000000922,Crumlin Road (Mater Hospital),54.608226,-5.940117
700000000923,Comber Road,54.594880,-5.814796
700000000924,Crumlin Road (Agnes Street),54.609036,-5.944239
700000000925,Dundonald Cemetery,54.594204,-5.820231
700000000926,Jaffa Street,54.610025,-5.949200
700000000927,Ardcarn,54.594036,-5.823560
700000000928,St Mary's,54.610339,-5.950873
700000000929,Rosepark,54.594485,-5.827846
700000000930,Tennent Street,54.610948,-5.953985
700000000931,Summerhill Avenue,54.594768,-5.835106
700000000932,Flax Street,54.611528,-5.956877
700000000933,Stormont Court,54.594575,-5.838634
700000000934,Ardoyne,54.613089,-5.963025
700000000935,Stormont,54.594486,-5.841723
700000000936,Mountainhill Walk,54.628222,-5.985318
700000000937,Stormont Park,54.594399,-5.844457
700000000938,Old Mill Road,54.628677,-5.982959
700000000939,Cabin Hill,54.594331,-5.847997
700000000940,Ligoniel,54.627898,-5.979860
700000000941,Hawthorden Court,54.594355,-5.850059
700000000942,Mountainhill Road,54.628515,-5.983502
700000000943,Knock Road,54.594670,-5.857120
700000000944,190 Ligoniel Road,54.627580,-5.985952
700000000946,Ligoniel Church,54.626795,-5.984682
700000000947,Belmont Church Road,54.594860,-5.862420
700000000948,133 Ligoniel Road,54.625252,-5.982376
700000000949,Astoria Gardens,54.594969,-5.865203
700000000950,Ligoniel Park,54.624366,-5.980057
700000000951,Hillview Avenue,54.595075,-5.867242
700000000952,37 Ligoniel Road,54.623910,-5.978060
700000000954,Leggagh Court,54.624051,-5.975687
700000000956,Tedburn Park,54.624195,-5.974027
700000000960,Bilston Road,54.623344,-5.972285
700000000962,Ballysillan Leisure Centre,54.624316,-5.970070
700000000964,Silverstream Gardens,54.625681,-5.968235
700000000966,Churchview,54.628364,-5.966512
700000000968,Ballysillan Drive,54.629625,-5.968092
700000000970,Ballysillan Avenue,54.631421,-5.970376
700000000972,Silverstream (Ballysillan Park),54.631559,-5.970281
700000000974,Clareglen,54.630317,-5.968641
700000000976,Bradbury Place,54.588989,-5.934572
700000000977,University Road,54.586803,-5.935692
700000000978,Ballysillan Road,54.629778,-5.963147
700000000979,Queen's University,54.584243,-5.936436
700000000980,Carr's Glen,54.630482,-5.961960
700000000981,Ulster Museum,54.582289,-5.936232
700000000982,Wallasey Park,54.628855,-5.964142
700000000983,Ashby Buildings,54.580546,-5.935351
700000000984,Formby Park,54.627956,-5.965217
700000000985,Sandhurst Drive,54.578573,-5.934077
700000000986,Silverstream Gardens,54.625489,-5.968325
700000000987,Stranmillis Mews,54.576103,-5.933127
700000000988,Bilston Road,54.623507,-5.972812
700000000989,Stranmillis College,54.573174,-5.933046
700000000990,Tedburn Park,54.624349,-5.974553
700000000991,Sharman Road,54.571699,-5.934420
700000000992,Crumlin Road (Glenbank Corner),54.622998,-5.976250
700000000993,Richmond Park,54.570084,-5.938459
700000000994,Glenside Park,54.620711,-5.975515
700000000995,Stranmillis (Broomhill Park),54.569818,-5.941096
700000000996,Abbeydale Park,54.618385,-5.971863
700000000997,Richmond Park,54.570256,-5.938136
700000000999,Sharman Road,54.572030,-5.934205
700000001000,Somerdale Park,54.616557,-5.968895
700000001001,Stranmillis College,54.574445,-5.933246
700000001002,Everton Complex,54.615798,-5.967923
700000001003,Ridgeway Street,54.577217,-5.933714
700000001005,Ashby Buildings,54.580089,-5.935292
700000001006,Ardoyne Shops,54.614266,-5.965542
700000001007,Ulster Museum,54.582577,-5.936492
700000001008,Woodvale Road (Twaddell),54.613087,-5.963909
700000001009,Queen's University,54.584881,-5.936436
700000001010,Mount Eden Court,54.610516,-5.963054
700000001011,University Road,54.587273,-5.935908
700000001012,Woodvale Road Youth Club,54.609264,-5.962855
700000001013,Bradbury Place,54.588648,-5.935112
700000001014,Woodvale Park,54.607816,-5.962853
700000001016,Cambrai Street,54.606408,-5.960532
700000001017,Duncrue Street (Northern Road),54.613945,-5.919968
700000001018,Mayo Street,54.605666,-5.959282
700000001019,Duncrue Street (Milewater Road),54.616796,-5.918290
700000001020,Glenwood Street,54.604716,-5.956990
700000001021,Duncrue Street (McKee Building),54.619323,-5.914968
700000001022,Tennent Street,54.604472,-5.954844
700000001023,Duncrue Street (Powerplant Trade),54.620540,-5.913210
700000001024,Berlin Street,54.604368,-5.952231
700000001025,Bretland House,54.621686,-5.913367
700000001026,Shankill Road (Co-op),54.604157,-5.948229
700000001027,Duncrue Road (Scruttons),54.622426,-5.915794
700000001028,Agnes Street,54.604033,-5.945986
700000001029,Duncrue Pass,54.623760,-5.915442
700000001030,Lower Shankill,54.603721,-5.942021
700000001031,Duncrue Road (Musgrave Cash & Carry),54.625962,-5.914909
700000001032,Peter's Hill,54.603345,-5.937290
700000001033,Dargan Crescent (Auto Trader),54.626426,-5.912815
700000001034,North Street,54.602721,-5.933512
700000001035,Dargan Crescent (BKB Bathroom),54.626433,-5.909824
700000001036,Ardoyne,54.613081,-5.962467
700000001037,Dargan Crescent (Vodafone),54.627551,-5.908040
700000001038,Cambrai Street,54.611456,-5.956049
700000001039,Dargan Road (Powerteam),54.629835,-5.906942
700000001040,Tennent Street,54.610832,-5.952858
700000001041,Westbank Road (Thomas Johnston),54.629422,-5.895772
700000001042,Century Street,54.609906,-5.948182
700000001043,Westbank Road (Norse Merchant),54.630363,-5.893645
700000001044,Crumlin Road (Agnes Street),54.609076,-5.943840
700000001045,Westbank Road (Express Hoses),54.631994,-5.890189
700000001046,Crumlin Road (Mater Hospital),54.608206,-5.939356
700000001047,Westbank Road (last stop outward),54.634104,-5.886391
700000001048,Carlisle Circus (Clifton Street),54.607306,-5.936077
700000001049,Westbank Road (first stop inward),54.633831,-5.886505
700000001050,Clifton Street,54.606122,-5.933763
700000001051,Westbank Road (Liverpool Ferry),54.631736,-5.890397
700000001052,Donegall Street,54.604869,-5.931628
700000001053,Westbank Road (Norse Merchant),54.630891,-5.892068
700000001054,Oldpark Road (Agnes Street),54.609916,-5.947036
700000001055,Westbank Road (last stop inward),54.630124,-5.893824
700000001056,Oldpark Library,54.610963,-5.948036
700000001057,Dargan Road (Powerteam),54.629621,-5.907448
700000001058,Hillview Road,54.612268,-5.947992
700000001059,Duncrue Street (BCC Contract Services),54.628100,-5.914433
700000001060,Churchview Court,54.614394,-5.949268
700000001061,Duncrue Road (Musgrave Cash & Carry),54.625544,-5.914761
700000001062,Ardoyne Avenue,54.615728,-5.951102
700000001063,Duncrue Road (Pickfords),54.623448,-5.915350
700000001064,Marrowbone Park,54.616795,-5.953421
700000001065,Duncrue Street (McKee Building),54.619668,-5.914320
700000001066,Deerpark Road (The Park),54.617854,-5.954315
700000001067,Duncrue Street (Ulsterbus),54.615195,-5.919127
700000001068,Torrens Crescent,54.619223,-5.953409
700000001069,Malone Road (Eglantine Ave),54.581218,-5.938172
700000001070,Cliftonville Circus,54.621548,-5.955216
700000001071,Malone Road (Chlorine Gardens),54.579790,-5.938948
700000001072,Dunkeld Gardens,54.622890,-5.959252
700000001073,Malone Road (Sans Souci Park),54.577692,-5.941501
700000001075,Malone Road (Beechlands),54.576068,-5.944146
700000001076,Deerpark Road,54.623942,-5.961741
700000001077,Malone Road (Notting Hill),54.573125,-5.946695
700000001078,Joanmount Park,54.625377,-5.963788
700000001079,Malone Road (Cranmore Park),54.571077,-5.947147
700000001080,Oldpark Shops,54.626650,-5.965818
700000001081,Malone Road (Osbourne),54.568496,-5.948244
700000001082,Oldpark Shops,54.626392,-5.965189
700000001083,Malone Road (Bladon Drive),54.567266,-5.949301
700000001084,Carr's Glen Primary School,54.624817,-5.962772
700000001085,Malone Road (Myrtlefield Park),54.565785,-5.950303
700000001086,Deerpark Road,54.623828,-5.961389
700000001087,Newforge Lane,54.555422,-5.948712
700000001088,Dunkeld Gardens,54.622861,-5.958769
700000001089,Malone Road (Balmoral Avenue),54.562665,-5.952183
700000001090,Cliftonville Circus,54.622054,-5.956226
700000001091,Malone Road (Mount Eden Park),54.560820,-5.953072
700000001092,Oldpark Road,54.620607,-5.954009
700000001093,Malone Road (Malone Hill Park),54.559713,-5.954172
700000001095,Torrens Crescent,54.619263,-5.953305
700000001096,Malone Road (Bristow Park),54.557970,-5.959357
700000001097,Deerpark Road (The Park),54.618335,-5.953633
700000001098,Upper Malone Road (Greenview Park),54.557575,-5.962336
700000001099,Marrowbone Park,54.616869,-5.953351
700000001100,Upper Malone Road (Malton Drive),54.555747,-5.965687
700000001102,Upper Malone Road (Dub Lane),54.555005,-5.967487
700000001103,Oldpark Ave,54.615234,-5.950264
700000001104,Upper Malone Road (Malone Heights),54.554158,-5.971072
700000001105,Hillview Road,54.612663,-5.947752
700000001106,Upper Malone Road (Malone View),54.552500,-5.974191
700000001107,Hillview Court,54.611760,-5.947850
700000001108,Finaghy Road South (Trossachs),54.551616,-5.976441
700000001109,Oldpark Road (Agnes Street),54.610197,-5.947249
700000001110,Chippendale Court,54.553519,-5.978190
700000001111,Belfast Royal Academy,54.613931,-5.937554
700000001112,Erinvale Avenue,54.555927,-5.980730
700000001113,Cliftonville Road (Academy),54.614602,-5.939866
700000001114,Finaghy Road South (De Beere Court),54.556637,-5.981031
700000001115,Manor Street,54.615666,-5.942526
700000001116,Finaghy Road South Youth Club,54.558093,-5.982427
700000001117,Glenard Brook,54.616912,-5.945436
700000001118,Finaghy Road South Health Center,54.560057,-5.984213
700000001119,Elimgrove Street,54.618374,-5.948584
700000001120,Finaghy Park Central,54.562328,-5.986276
700000001121,Knutsford Drive,54.619392,-5.950713
700000001122,Finaghy Road North (Orchardville),54.566497,-5.989934
700000001123,Kingsmere Avenue,54.620422,-5.952766
700000001124,Ladybrook Shops,54.568524,-5.992841
700000001125,Kelvin Parade,54.620125,-5.951962
700000001126,Ladybrook Avenue,54.566691,-5.997398
700000001127,Chestnut Gardens,54.617595,-5.946804
700000001128,Ladybrook Cross,54.565973,-6.000346
700000001129,Glenard Brook,54.616810,-5.944961
700000001130,Ladybrook (Turning Circle),54.565541,-6.000087
700000001131,Manor Street,54.615572,-5.942114
700000001132,Ladybrook Avenue,54.566804,-5.997239
700000001133,Cliftonville Road (Academy),54.614317,-5.938413
700000001134,Ladybrook Shops,54.568633,-5.992805
700000001135,Duncairn Gardens,54.614997,-5.936588
700000001136,Finaghy Road North (Orchardville),54.566268,-5.989524
700000001137,Halliday's Road,54.614047,-5.934249
700000001138,Finaghy Park Central,54.562201,-5.986031
700000001139,Edlingham Street,54.613158,-5.931715
700000001140,Finaghy Road South Health Center,54.560404,-5.984339
700000001141,Adam Street,54.612371,-5.929671
700000001142,Benmore Walk,54.555358,-5.979715
700000001143,North City Business Centre,54.611643,-5.927695
700000001144,Chippendale Court,54.553595,-5.978089
700000001145,North City Business Centre,54.612097,-5.929242
700000001146,Finaghy Rd South (Trossachs),54.551955,-5.976521
700000001147,Adam Street,54.612421,-5.930048
700000001148,Malone View,54.552269,-5.974648
700000001149,Edlingham Street,54.613256,-5.932298
700000001150,Malone Heights,54.554593,-5.969877
700000001151,Halliday's Road,54.614257,-5.934998
700000001152,Malton Drive,54.555999,-5.965417
700000001153,Carlisle Circus (Antrim Road),54.608259,-5.936634
700000001154,Fleming Fulton,54.556953,-5.963762
700000001155,Lincoln Avenue,54.608986,-5.936395
700000001156,Harberton Park,54.557758,-5.961983
700000001157,Kane Cottage,54.611463,-5.936014
700000001158,House of Sport,54.558067,-5.958577
700000001159,New Lodge Road,54.613023,-5.936165
700000001160,Malone Road (Malone Hill Park),54.559476,-5.954567
700000001161,Cliftonville Road,54.614332,-5.936834
700000001162,Malone Road (Mount Eden Park),54.560961,-5.953148
700000001164,Malone Road (Balmoral Avenue),54.564003,-5.951693
700000001165,Antrim Road (Eia Street),54.615569,-5.937511
700000001166,Malone Road (Myrtlefield Park),54.565486,-5.950645
700000001167,Waterworks,54.617424,-5.938280
700000001168,Malone Road (Bladon Drive),54.568506,-5.948492
700000001169,Richmond Lane,54.619284,-5.938599
700000001170,Malone Road (Cranmore Park),54.571618,-5.947385
700000001171,Willowbank Gardens,54.621915,-5.938187
700000001172,Malone Road (Notting Hill),54.573164,-5.946853
700000001173,Kansas Avenue,54.624035,-5.938532
700000001174,Malone Road (Victoria College),54.574119,-5.946264
700000001175,Antrim Road (Salisbury Avenue),54.626175,-5.937979
700000001176,Malone Road (Adelaide Park),54.575700,-5.944962
700000001177,Firmount,54.628330,-5.938916
700000001178,Chichester Avenue,54.630142,-5.938782
700000001179,Malone Road (Windsor Ave),54.578131,-5.940738
700000001180,North Circular Road,54.633245,-5.937671
700000001181,Malone Road (Eglantine Ave),54.580592,-5.938623
700000001182,Strathmore Park,54.635493,-5.936881
700000001183,Malone Road (Methodist College),54.582352,-5.937616
700000001184,Donegall Park Avenue,54.639165,-5.936523
700000001186,Downview Avenue,54.640704,-5.936470
700000001187,Fountainville Avenue,54.587810,-5.936812
700000001188,Lisburn Road (City Hospital),54.586318,-5.939826
700000001189,Downview Lodge,54.642870,-5.935982
700000001190,Ulsterville Avenue,54.584064,-5.943015
700000001191,Gray's Lane,54.645251,-5.935220
700000001192,Melrose Street,54.581909,-5.947049
700000001193,Antrim Road (Serpentine Road),54.647350,-5.934834
700000001194,Windsor Avenue,54.580553,-5.948900
700000001195,Ben Madigan Park,54.651579,-5.934778
700000001196,Windsor Road,54.579508,-5.950347
700000001197,Kincraig Park,54.654038,-5.936582
700000001198,Ethel Street,54.578584,-5.951357
700000001199,Tree Tops,54.656388,-5.937880
700000001200,Brookland Street,54.577387,-5.952758
700000001201,Hazelwood Park,54.658061,-5.940385
700000001202,Lisburn Road (Marlborough Park),54.575236,-5.955568
700000001203,Bellevue Park,54.659619,-5.943080
700000001204,Cranmore Avenue,54.574025,-5.957386
700000001205,Antrim Road (Bellevue),54.663127,-5.947206
700000001206,Lancefield Road,54.572926,-5.959091
700000001207,Bellevue Bridge,54.664032,-5.948131
700000001208,Maryville Park,54.571622,-5.961286
700000001209,Elmfield,54.666740,-5.950846
700000001210,Malone Park,54.569930,-5.964326
700000001211,Church Road,54.668508,-5.953733
700000001212,Lisburn Road (Kings Hall),54.567645,-5.968995
700000001213,Glengormley (Ulster Bank),54.670254,-5.957534
700000001214,Kingscourt,54.566187,-5.972862
700000001215,Harmin Parade,54.672782,-5.961071
700000001216,Balmoral Park,54.565164,-5.975796
700000001217,Rose Park,54.674064,-5.964237
700000001218,Priory Park,54.564282,-5.978295
700000001219,Antrim Road (Burney's Lane),54.675166,-5.967092
700000001220,Swanston Road,54.676916,-5.972415
700000001221,Sicily Park,54.562637,-5.977701
700000001222,Sandyknowes,54.677473,-5.974363
700000001223,Sicily Park (Priory Park),54.559679,-5.974952
700000001224,Sandyknowes,54.677723,-5.974962
700000001225,Balmoral (Finnis Drive),54.559161,-5.972936
700000001226,Swanston Park,54.676271,-5.969869
700000001227,Sicily Park (Priory Park),54.560046,-5.975266
700000001228,Sicily Park,54.563420,-5.978505
700000001229,Antrim Road (Burney's Lane),54.675024,-5.966504
700000001230,Lisburn Road (Sicily Park),54.563792,-5.979516
700000001231,Rose Park,54.674319,-5.964666
700000001232,Grangeville Drive,54.562399,-5.982739
700000001233,Harmin Parade,54.672422,-5.960275
700000001234,Lisburn Road (Finaghy),54.560690,-5.986039
700000001235,Glengormley (Ulster Bank),54.669757,-5.956508
700000001236,Upton Park,54.558761,-5.989162
700000001237,Church Road,54.668294,-5.952844
700000001239,Elmfield,54.667113,-5.951006
700000001240,Black's Road,54.555851,-5.992313
700000001241,Cardigan Drive,54.618886,-5.949409
700000001242,Dunmurry Lane,54.552627,-6.000043
700000001244,Dunmurry Village,54.550921,-6.004301
700000001245,O'Neill Road,54.664768,-5.948730
700000001246,Grange Hill,54.548536,-6.009482
700000001247,Antrim Road (Bellevue),54.662871,-5.946762
700000001248,Lisburn Road (Seymour Hill),54.544326,-6.013570
700000001249,Whitewell,54.661381,-5.945019
700000001250,Ballybog Road,54.541404,-6.013005
700000001251,Floral Park,54.660038,-5.943446
700000001252,Conway (River Road),54.538905,-6.013517
700000001253,Bellevue Park,54.658822,-5.941296
700000001254,Ballybog Road,54.541983,-6.013990
700000001255,Hazelwood Park,54.657849,-5.939992
700000001256,Lisburn Road (Seymour Hill),54.544937,-6.013058
700000001257,Tree Tops,54.656601,-5.937994
700000001258,Grange Hill,54.548821,-6.009309
700000001259,Thronemount,54.652628,-5.935143
700000001260,Dunmurry Halt,54.550369,-6.006305
700000001261,Ben Madigan Park,54.651469,-5.934565
700000001262,Dunmurry Village,54.551210,-6.003432
700000001263,Antrim Road (Serpentine Road),54.647017,-5.934553
700000001264,Beechlawn Park,54.553409,-5.999222
700000001266,Black's Road,54.556292,-5.992031
700000001267,Downview Lodge,54.642347,-5.936025
700000001268,Upton Park,54.558490,-5.989739
700000001269,Downview Avenue,54.640494,-5.936295
700000001270,Lowe Memorial Church,54.559902,-5.987556
700000001271,Donegall Park Avenue,54.638414,-5.936373
700000001272,Lisburn Road (Finaghy),54.561835,-5.984030
700000001273,Belfast Castle,54.636657,-5.936482
700000001274,Donegall Park,54.563228,-5.981055
700000001275,North Circular Road,54.633697,-5.937327
700000001276,Beechmount Park,54.564991,-5.976677
700000001277,Chichester Avenue,54.630229,-5.938619
700000001278,Kingscourt,54.566028,-5.973868
700000001279,Firmount,54.628266,-5.938678
700000001280,Lisburn Road (Kings Hall),54.568236,-5.968542
700000001281,Antrim Road (Salisbury Avenue),54.625471,-5.937803
700000001282,Malone Park,54.569816,-5.964779
700000001283,Glandore Avenue,54.624347,-5.938345
700000001284,Lislea Park,54.570563,-5.963412
700000001285,Hopefield Avenue,54.622517,-5.938183
700000001286,Osbourne Park,54.571994,-5.960904
700000001287,Alexandra Park Avenue,54.620699,-5.937945
700000001288,Capstone Street,54.573241,-5.958796
700000001289,Richmond Lane,54.619498,-5.938372
700000001290,Lisburn Road (Marlborough Park),54.575295,-5.955698
700000001291,Waterworks,54.618063,-5.938248
700000001292,Brookland Street,54.577541,-5.952727
700000001293,Antrim Road (Eia Street),54.615804,-5.937487
700000001294,Windsor Road,54.579737,-5.950214
700000001295,Cliftonville Road,54.614576,-5.936795
700000001296,Windsor Avenue,54.581175,-5.948325
700000001297,New Lodge Road,54.613129,-5.935943
700000001298,Melrose Street,54.582069,-5.947111
700000001299,Dawson Street,54.610614,-5.935839
700000001300,Ashley Avenue,54.583540,-5.944467
700000001301,Carlisle Circus (Antrim Road),54.608375,-5.936382
700000001302,Ulsterville Avenue,54.584176,-5.943181
700000001303,Catherine Court,54.646656,-5.921026
700000001304,Lisburn Road (City Hospital),54.586398,-5.939865
700000001305,Hazelwood College,54.647557,-5.922106
700000001306,Fountainville Avenue,54.587391,-5.938072
700000001307,Serpentine Road,54.649320,-5.924292
700000001308,Belfast Hostelling International,54.589347,-5.935458
700000001309,Vandyck Gardens,54.650599,-5.925920
700000001310,Donegall Road 78,54.589107,-5.938702
700000001311,Lower WhitewelL(White City),54.651781,-5.927461
700000001312,Donegall Road 175,54.588765,-5.942820
700000001313,Upper Whitewell (Throne),54.654453,-5.931038
700000001314,Pandora Street,54.588650,-5.946092
700000001315,Throne Centre,54.656365,-5.933364
700000001316,McDowells Pharmacy,54.588912,-5.950174
700000001317,Fairyknowe Park,54.658157,-5.936050
700000001318,Frenchpark Street,54.588798,-5.954221
700000001319,Bellevue Park,54.660319,-5.939533
700000001320,"Donegall Road, Monarch Laundry",54.588590,-5.956709
700000001321,Bellevue Park,54.660102,-5.939016
700000001323,Fairyknowe Park,54.658091,-5.935858
700000001324,Throne Centre,54.656359,-5.933255
700000001325,Tates Avenue,54.585399,-5.956942
700000001326,Upper Whitewell (Throne),54.653947,-5.930276
700000001327,Donegall Parade,54.584769,-5.953644
700000001328,Lower WhitewelL(White City),54.651758,-5.927334
700000001329,Donegall Road 113,54.586544,-5.951617
700000001330,Vandyck Gardens,54.650861,-5.926147
700000001331,Donegall Road 15,54.588192,-5.950198
700000001332,Veryan Gardens,54.649851,-5.924839
700000001333,Olympia Leisure Centre,54.584266,-5.959665
700000001334,Serpentine Road,54.648746,-5.923430
700000001336,Catherine Court,54.646948,-5.921194
700000001339,Boucher Road (City Council Depot),54.571618,-5.970713
700000001340,Newtownabbey Courthouse,54.658125,-5.923730
700000001341,Stockmans Lane 95,54.571610,-5.973158
700000001342,Valley Retail Park,54.661310,-5.927016
700000001343,Park Centre,54.588316,-5.963156
700000001344,Valley Leisure Centre,54.663151,-5.930437
700000001345,Donegall Road 506,54.588883,-5.966169
700000001347,Donegall Road 532,54.589165,-5.967699
700000001351,Blackstaff Road,54.576547,-5.978640
700000001352,Valley Retail Park,54.661626,-5.927264
700000001353,Stockmans Lane 99,54.571885,-5.973556
700000001354,Newtownabbey Courthouse,54.658378,-5.923708
700000001355,Boucher Road (Charles Hurst),54.573879,-5.968410
700000001356,Northern Regional College,54.666215,-5.903875
700000001358,Abbey Court,54.670805,-5.902361
700000001360,Fernagh Avenue,54.672471,-5.907580
700000001361,Autoglass,54.584563,-5.959663
700000001362,Cloughfern (Station Road),54.672985,-5.910888
700000001363,Glenmachan Street,54.586614,-5.958298
700000001365,Donegall Road 583,54.589298,-5.968037
700000001367,Donegall Road 545,54.588826,-5.965699
700000001369,Park Centre,54.588347,-5.962772
700000001371,Monarchy Laundry,54.588704,-5.956519
700000001373,Donegall Road Methodist Church,54.588977,-5.952581
700000001376,Donegall Road Disabled Care Centre,54.588962,-5.950582
700000001377,Prince Charles Way (Cairnhill Road),54.680880,-5.951073
700000001378,Pandora Street,54.588675,-5.945320
700000001379,Ferndale Avenue,54.681453,-5.952789
700000001380,Abingdon Drive,54.588822,-5.942732
700000001381,Ferndale,54.682632,-5.957188
700000001382,Donegall Road 53,54.589217,-5.937784
700000001383,Prince Charles Way (Glebe Road),54.684922,-5.961416
700000001384,Belfast Hostelling International,54.589403,-5.935123
700000001385,Carnview Road,54.685707,-5.961322
700000001386,Waverley Gardens,54.688002,-5.954405
700000001387,Waverly,54.687666,-5.955055
700000001388,Prince Charles Way (Glebe Road),54.684401,-5.960294
700000001389,Ferndale,54.682784,-5.957218
700000001390,Prince Charles Way (Cairnhill Road),54.680899,-5.950764
700000001397,Cloughfern (Station Road),54.673213,-5.911919
700000001398,Fernagh Avenue,54.672740,-5.908723
700000001399,Whiteabbey Halt,54.672216,-5.906019
700000001400,Abbey Court,54.670913,-5.902356
700000001401,Northern Regional College,54.668038,-5.902002
700000001402,Shore Road (M5 Roundabout),54.662230,-5.906967
700000001404,Shore Road (M5 Roundabout),54.662270,-5.907111
700000001405,Abbey Park,54.662303,-5.909705
700000001406,Rush Park,54.664150,-5.911263
700000001407,Doagh Road (Green End),54.666510,-5.912546
700000001408,Abbot's Cross,54.668683,-5.912926
700000001409,Heather Park,54.670401,-5.913215
700000001410,Cloughfern (Whiteabbey Hospital),54.672729,-5.913517
700000001411,Knockenagh Avenue,54.675031,-5.914654
700000001412,King's Road,54.677851,-5.916431
700000001413,Hillcrest Villas,54.680205,-5.917900
700000001414,Doagh Road (Cherrylands),54.681975,-5.919049
700000001415,Wilson's Factory,54.686273,-5.922428
700000001416,Ballyduff,54.689300,-5.926416
700000001417,Nelson Street Bus Lane,54.610550,-5.920664
700000001418,Nelson Street (Dock Street),54.608566,-5.922208
700000001419,Nelson Street (M3),54.606192,-5.924396
700000001420,Dunbar Link,54.604616,-5.928071
700000001421,Royal Avenue (Castle Court),54.601502,-5.931194
700000001422,Royal Avenue,54.600449,-5.930644
700000001424,King Street,54.598291,-5.934773
700000001425,Wellington Place,54.597179,-5.934123
700000001427,College Street,54.597838,-5.933490
700000001428,Queen Street,54.598236,-5.933420
700000001429,Queen Street,54.598729,-5.933219
700000001430,Donegall Place,54.597556,-5.929993
700000001431,Donegall Square East,54.596920,-5.928553
700000001432,Donegall Square East,54.596651,-5.928527
700000001433,Donegall Square East,54.596292,-5.928508
700000001435,Howard Street,54.595823,-5.932133
700000001436,Chichester Street,54.597433,-5.928246
700000001437,Chichester Street,54.597507,-5.927355
700000001440,Three Mile Water,54.690079,-5.927345
700000001441,Bridge Road,54.687960,-5.924485
700000001442,Wilson's Factory,54.685883,-5.921692
700000001443,Doagh Road (Cherrylands),54.682772,-5.919436
700000001444,Hillcrest Villas,54.681019,-5.918305
700000001445,Glenville (Monkstown Avenue),54.681635,-5.910665
700000001447,Glenville (Monkstown Avenue),54.681383,-5.910967
700000001448,King's Road,54.678367,-5.916605
700000001449,Knockenagh Avenue,54.674842,-5.914372
700000001450,Cloughfern (Whiteabbey Hospital),54.672304,-5.913321
700000001451,Heather Park,54.670646,-5.913130
700000001452,Abbot's Cross,54.668105,-5.912715
700000001453,Doagh Road (Green End),54.666344,-5.912390
700000001454,Rush Park,54.664146,-5.911123
700000001455,Abbey Park,54.662104,-5.909469
700000001456,Ballyduff Road (Doagh Road),54.688105,-5.926098
700000001457,Ballyduff Gardens,54.688676,-5.929025
700000001458,Ballyfore Road (Doagh Road),54.690505,-5.928923
700000001459,Ballyduff Gardens,54.688403,-5.929946
700000001460,Ballyfore Park,54.687819,-5.931038
700000001461,Forthill Park,54.688252,-5.932664
700000001462,Forthill Green,54.687665,-5.934128
700000001463,Ballyduff (Forthill Drive),54.687458,-5.936623
700000001464,Forthill Drive (Carnmoney),54.689052,-5.936560
700000001465,Forthill Drive (Carnmoney),54.688751,-5.936686
700000001466,Ballyduff (Forthill Drive),54.687080,-5.934972
700000001467,Forthill Green,54.688037,-5.933745
700000001468,Fairview Road (Ballyduff Shops),54.689270,-5.935091
700000001469,Glenkyle,54.689681,-5.941822
700000001470,Fairview Road (Fairview Gardens),54.689487,-5.945296
700000001471,Fairview Road (Beverley Shops),54.688555,-5.948218
700000001472,Beverley Road,54.689294,-5.949826
700000001473,Beverley Road,54.689249,-5.949558
700000001474,Fairview Road (Beverley Shops),54.688723,-5.948017
700000001475,Fairview Road (Fairview Gardens),54.689512,-5.945609
700000001476,Glenkyle,54.689709,-5.942896
700000001477,Fairview Road,54.689781,-5.936817
700000001478,Fairview Road (Carnmoney Terminus),54.689786,-5.936368
700000001479,Fairview Road (Ballyduff Shops),54.689101,-5.934221
700000001480,Ballyfore Park,54.687767,-5.931546
700000001481,Ballyfore Road (Doagh Road),54.690362,-5.929453
700000001482,Sandyknowes (Ballyhenry Road),54.680055,-5.975159
700000001483,Sherwood Park,54.682217,-5.970404
700000001484,Glencroft Road,54.684232,-5.966270
700000001485,Ballycraigy Road,54.685941,-5.964620
700000001486,Ballyearl Drive,54.689287,-5.964605
700000001487,Ballyhenry (Ballyearl Way),54.690689,-5.962445
700000001488,Milewater Court,54.691482,-5.960752
700000001489,Carn Court,54.691494,-5.956546
700000001490,New Mossley (Manse Way),54.688973,-5.957728
700000001491,Carn Green,54.691072,-5.954874
700000001492,Campbell Road,54.690048,-5.951530
700000001493,Mossley Pavilion,54.691279,-5.950734
700000001495,The Glade,54.693320,-5.951305
700000001496,Uppertown Drive,54.695019,-5.953256
700000001497,Mossley (Rail Station),54.696506,-5.951506
700000001498,Mossley Mill,54.695818,-5.950803
700000001500,The Villas,54.694050,-5.950972
700000001501,Lakeview Grove,54.693030,-5.950531
700000001502,Campbell Road,54.689994,-5.951509
700000001503,Manse Way,54.691263,-5.953977
700000001504,Carn Court,54.691452,-5.956976
700000001505,Carn Crescent,54.691352,-5.959233
700000001506,Milewater Drive,54.691457,-5.961231
700000001508,Ballyhenry (Ballyearl Way),54.690197,-5.962365
700000001509,Ballyearl Drive,54.689497,-5.963974
700000001510,Ballycraigy Road,54.686024,-5.964551
700000001511,Ballyhenry Road,54.682893,-5.968716
700000001512,Ballyhenry Avenue,54.680953,-5.972748
700000001513,Sandyknowes (Ballyhenry Road),54.679856,-5.975466
700000001514,Central Library,54.602894,-5.930957
700000001515,Interpoint,54.603861,-5.929455
700000001516,Central Library,54.602654,-5.930887
700000001518,Interpoint,54.604343,-5.929269
700000001519,Donegall Street,54.603828,-5.929901
700000001520,Glengormley Park,54.672628,-5.959457
700000001522,Hillview Park,54.675404,-5.960674
700000001523,Ballyclare Road (Northcott),54.677060,-5.961441
700000001524,Glenvarna Walk,54.681047,-5.963010
700000001525,Carwood Avenue,54.682849,-5.963729
700000001526,Manse Road,54.684108,-5.964286
700000001527,Manse Road,54.683668,-5.963995
700000001528,Ladysmith Lane,54.681733,-5.963201
700000001529,Ballyclare Road (Northcott),54.677766,-5.961572
700000001530,Hillview Park,54.675780,-5.960711
700000001532,Glengormley Park,54.673209,-5.959576
700000001533,Portland Avenue,54.672280,-5.957189
700000001534,Glengormley Pavilion,54.673754,-5.956401
700000001535,Inniscoole Park,54.675063,-5.955690
700000001536,Coole Park,54.677124,-5.954556
700000001537,St. Mary's On The Hill,54.678727,-5.953641
700000001538,Carnmoney (Burnthill Road),54.678965,-5.952159
700000001539,Carnmoney (Burnthill Road),54.678949,-5.952375
700000001540,St. Mary's On The Hill,54.677283,-5.954370
700000001541,Coole Park,54.676157,-5.954974
700000001542,Glengormley Pavilion,54.673776,-5.956279
700000001543,Portland Avenue,54.671431,-5.957571
700000001544,Carnmoney Primary School,54.682055,-5.951451
700000001545,Carnmoney Village (Carnvue),54.683481,-5.951295
700000001546,Ballyduff Road,54.685275,-5.951174
700000001547,Beverley Avenue,54.687158,-5.951062
700000001548,Beverley Avenue,54.687756,-5.950934
700000001549,Waverley Park,54.686557,-5.951004
700000001550,Ballyduff Road,54.685070,-5.951092
700000001551,Carnmoney Village (Carnvue),54.683286,-5.951213
700000001552,Carnmoney Primary School,54.681755,-5.951266
700000001553,Hightown Court,54.669844,-5.962088
700000001554,Hightown Park,54.668270,-5.965674
700000001555,Hightown Road (Edmund Rice College),54.666784,-5.969020
700000001556,Hightown Court,54.669616,-5.962748
700000001557,Hightown (Glengormley),54.670877,-5.959923
700000001558,Hightown (Glengormley),54.671003,-5.959392
700000001559,Scullion's Road,54.676105,-5.980686
700000001560,Scullion's Road,54.675779,-5.981026
700000001561,Northside Park & Ride,54.607044,-5.925873
700000001562,Hightown Avenue,54.673525,-5.980930
700000001563,Boxmore,54.672559,-5.976940
700000001564,Mallusk Road (Ballyrobert Garage),54.672108,-5.974770
700000001565,Rosehall,54.669249,-5.964869
700000001566,Rosehall,54.669260,-5.965088
700000001567,Royal Mail (Enterprise Way),54.669154,-5.974077
700000001568,Mallusk Road (Ballyrobert Garage),54.672125,-5.975345
700000001569,Mallusk Drive,54.673312,-5.980567
700000001570,Central Park (Mallusk),54.675060,-5.987024
700000001571,Mallusk Road,54.676962,-5.993962
700000001572,Trench Road,54.677986,-5.997555
700000001573,Hydepark (Trench Road),54.678734,-5.998063
700000001574,Blackwater Road,54.678050,-5.990173
700000001575,Cloughmore Road,54.676819,-5.989323
700000001576,Academy,54.678973,-6.001160
700000001577,Mallusk(Parkmount),54.679997,-6.005001
700000001578,Old Mill Crescent,54.681196,-6.009264
700000001579,Craigarogan Quarry,54.683151,-6.016473
700000001580,Bernice Road,54.684334,-6.021744
700000001581,Fort Road,54.685514,-6.026829
700000001582,Oakview,54.687852,-6.037105
700000001583,Roughfort (Turning Circle),54.688274,-6.037939
700000001584,Fort Road,54.685758,-6.027629
700000001585,Craigarogan Road,54.684549,-6.022324
700000001586,Craigarogan Quarry,54.683132,-6.016239
700000001587,Old Mill Crescent,54.681314,-6.009493
700000001588,Mallusk(Parkmount),54.680153,-6.005187
700000001589,Hydepark Presbyterian Church,54.678496,-5.999266
700000001590,Mallusk Road,54.677167,-5.994308
700000001591,Central Park (Mallusk),54.675076,-5.986529
700000001592,Merville Garden Village,54.655735,-5.910888
700000001593,Merville Mews,54.657463,-5.909457
700000001595,Merville Mews,54.657250,-5.909390
700000001596,Merville Garden Village,54.655087,-5.911462
700000001603,Oldpark (Westland Road),54.624849,-5.948593
700000001604,Knutsford Drive,54.623611,-5.949588
700000001605,39 Westland Road,54.622651,-5.951169
700000001606,Alliance Avenue (Oldpark Road),54.621096,-5.955280
700000001607,Deerpark Road,54.619256,-5.957643
700000001608,Etna Drive,54.618371,-5.961044
700000001609,Berwick Road,54.617936,-5.963327
700000001610,Alliance Avenue (Ardoyne Road),54.617390,-5.966265
700000001611,Ardoyne Road,54.615419,-5.966320
700000001612,Ardoyne Road,54.615680,-5.966578
700000001613,Alliance Avenue (Ardoyne Road),54.617548,-5.965831
700000001614,Berwick Road,54.618055,-5.962997
700000001615,Alliance Avenue (Tommy & Anne's),54.618498,-5.960731
700000001616,Etna Drive,54.619099,-5.958047
700000001617,Alliance Avenue (Oldpark Road),54.620792,-5.955762
700000001618,Westland Road (Golf Course),54.622699,-5.951360
700000001619,Pilot Street,54.608150,-5.921176
700000001620,Clarendon Dock,54.606700,-5.922059
700000001621,Great Patrick Street,54.604009,-5.924062
700000001622,Corporation Square,54.604746,-5.923513
700000001623,Clarendon Dock,54.606508,-5.922444
700000001624,Pilot Street,54.608007,-5.921426
700000001625,Great Patrick Street,54.604798,-5.923302
700000001626,Great Northern Mall,54.594326,-5.934204
700000001627,Great Northern Mall,54.594038,-5.934192
700000001628,Bruce Street,54.592945,-5.933234
700000001630,Dublin Road,54.591399,-5.932651
700000001631,Albion Street,54.591020,-5.934349
700000001633,Great Northern Mall,54.594233,-5.934567
700000001634,St George's Market,54.596252,-5.922541
700000001635,May Street,54.596203,-5.924596
700000001636,May Street,54.596103,-5.926848
700000001637,Adelaide St.,54.595690,-5.928465
700000001639,Ormeau Ave.,54.592415,-5.926849
700000001640,Ormeau Ave.,54.592916,-5.929979
700000001641,Ormeau Ave.,54.593088,-5.929934
700000001643,Bedford Street,54.595102,-5.931351
700000001645,Belfast City Centre,54.597300,-5.932632
700000001646,Wellington Place,54.597317,-5.932107
700000001647,High Street,54.600093,-5.926938
700000001650,Odyssey,54.603153,-5.916884
700000001651,Abercorn Basin,54.606433,-5.910321
700000001652,Victoria Road,54.608922,-5.906748
700000001653,Alexander Dock,54.611853,-5.902613
700000001654,Queen's University (Science Park),54.613235,-5.900747
700000001655,Queen's University (Science Park),54.613999,-5.899364
700000001656,Alexander Dock,54.611525,-5.902752
700000001657,Victoria Road,54.608601,-5.906950
700000001661,Victoria Square,54.598271,-5.924052
700000001664,Fraser Street Bridge,54.603426,-5.905385
700000001665,Hamilton Road,54.603521,-5.899662
700000001666,DRD,54.604486,-5.897074
700000001667,Airport Road (Shorts),54.606922,-5.893496
700000001668,River Side,54.608836,-5.890735
700000001669,Airport Road (BOC),54.613679,-5.886704
700000001670,Airport Road West,54.617534,-5.885383
700000001671,Emo,54.622587,-5.882920
700000001672,Moscow Rd / Harbour Lagoon,54.626142,-5.878082
700000001673,Portside,54.630258,-5.872289
700000001674,Heron Road,54.633511,-5.867855
700000001675,Trident House,54.634457,-5.863030
700000001676,Trident House,54.634432,-5.863539
700000001677,Heron Road,54.633650,-5.867449
700000001678,Portside,54.629827,-5.872822
700000001679,Moscow Rd / Harbour Lagoon,54.624021,-5.880825
700000001680,Phoenix Gas,54.622330,-5.883082
700000001681,Airport Road West,54.617459,-5.885205
700000001683,River Side,54.608439,-5.891054
700000001684,Airport Road (Shorts),54.606543,-5.893816
700000001685,DRD,54.605345,-5.895530
700000001686,Fraser St. Bridge,54.603233,-5.906373
700000001687,Old Channel Rd.,54.603154,-5.911029
700000001688,City Airport,54.614567,-5.869666
700000001689,Ballyregan Road (Dundonald),54.594752,-5.806002
700000001690,Burton Avenue,54.594790,-5.800213
700000001691,Drumadoon,54.592958,-5.798726
700000001692,Davarr Avenue,54.592178,-5.795494
700000001694,Craigleith Drive,54.590827,-5.789236
700000001695,Craigleith Drive2,54.593587,-5.788129
700000001696,Cairnsmore Avenue,54.593764,-5.785358
700000001697,Ballybeen (Culross Drive),54.592364,-5.786126
700000001698,Ballybeen (Culross Drive),54.590375,-5.787320
700000001699,Admore Avenue,54.588161,-5.787935
700000001700,Beauly Drive,54.586881,-5.788900
700000001701,Gleneagles Gardens,54.588330,-5.790862
700000001702,Ballybeen (Rank Road),54.588436,-5.794371
700000001703,Inchmarnock Drive,54.590875,-5.795450
700000001704,Drumadoon,54.591791,-5.794932
700000001705,Davarr Avenue,54.593187,-5.795418
700000001706,Brooklands,54.594861,-5.795403
700000001707,Robb's Road,54.593588,-5.799559
700000001708,Cherry Hill,54.594599,-5.802859
700000001709,Ballyregan Road (Dundonald),54.594712,-5.806432
700000001710,The Ulster Hospital,54.594833,-5.812004
700000001714,Towell House,54.591736,-5.854071
700000001715,King's Road (Barnetts Road),54.590100,-5.849533
700000001716,King's Square,54.589057,-5.845285
700000001717,Abbey Road,54.588844,-5.836701
700000001718,Granton Heights,54.588598,-5.831428
700000001719,Tullycarnet (Presbyterian Church),54.588347,-5.826867
700000001720,Ice Bowl,54.588479,-5.818703
700000001721,East Link,54.587222,-5.813522
700000001722,Coronation Park,54.586575,-5.807205
700000001726,Galway Drive,54.593711,-5.813370
700000001732,East Link,54.589207,-5.813320
700000001733,No 5,54.586582,-5.807856
700000001734,East Link,54.587196,-5.813752
700000001735,Ice Bowl,54.587876,-5.817005
700000001736,Tullycarnet (Primary School),54.588346,-5.828307
700000001737,Granton House,54.588514,-5.832086
700000001738,Abbey Road,54.588864,-5.838360
700000001740,Supervalu,54.588976,-5.844456
700000001741,Kingsway,54.587774,-5.847161
700000001742,Kingsway P,54.587082,-5.846600
700000001743,St Patrick's,54.585008,-5.843091
700000001744,Gilnahirk Rise,54.583801,-5.841444
700000001745,Laganside Bus Station,54.600027,-5.926482
700000001749,Royal Avenue (Castle Court),54.600044,-5.930651
700000001750,Royal Avenue (Castle Court),54.600980,-5.931191
700000001751,Royal Avenue (Castle Court),54.601147,-5.931300
700000001752,Royal Avenue (Castle Court),54.601573,-5.931480
700000001754,St Patrick's,54.585173,-5.843571
700000001755,Kensington,54.586457,-5.846170
700000001756,Cherryvalley,54.587779,-5.847301
700000001757,King's Road (Barnetts Road),54.590207,-5.850116
700000001758,King's Road (Knock Road),54.591361,-5.853152
700000001762,Glen Parade,54.583551,-5.981971
700000001763,Gransha,54.583005,-5.984906
700000001764,Glenowen,54.582165,-5.987735
700000001765,Glen Road (St.Theresa's),54.580878,-5.992951
700000001766,Coolnasilla,54.580805,-5.994616
700000001767,CBS,54.579950,-5.999240
700000001768,Ramoan,54.579037,-6.002912
700000001769,Rosnareen,54.578220,-6.006409
700000001770,Shaw's Road (Glen Road),54.576495,-6.013377
700000001771,St. Oliver Plunkett,54.576175,-6.017324
700000001772,Glencolin,54.575899,-6.019418
700000001773,Glencolin,54.576064,-6.019326
700000001774,Hannahstown Hill,54.575968,-6.021654
700000001775,Glen Road (Suffolk Road),54.575832,-6.023576
700000001776,Suffolk Heights,54.575139,-6.024405
700000001777,Donegal Celtic,54.573782,-6.021686
700000001778,Old Suffolk Rd.,54.573101,-6.019978
700000001779,Falcarragh,54.571132,-6.016719
700000001780,Suffolk Road (Woodbourne),54.568167,-6.013377
700000001785,Castle Junction,54.599419,-5.929150
700000001786,Donegall Place,54.597851,-5.930068
700000001789,Falls Road (Royal Hospitals),54.595205,-5.955756
700000001791,Childrens Hospital,54.593209,-5.958769
700000001792,Broadway,54.592128,-5.961823
700000001793,Beechmount,54.591481,-5.964548
700000001794,Beechview Park,54.590714,-5.967370
700000001795,Falls Road (St.James's),54.588982,-5.969447
700000001796,Falls Road (City Cemetry),54.588132,-5.970123
700000001797,St Louise's,54.586603,-5.971785
700000001798,Rossa House,54.585640,-5.973426
700000001799,Falls Park,54.584871,-5.976572
700000001800,Europa Busway,54.591771,-5.948283
700000001801,Europa Busway,54.591632,-5.947852
700000001802,Donegall Square West,54.596273,-5.931557
700000001803,Donegall Square West,54.596659,-5.931595
700000001804,Donegall Square West,54.597008,-5.931659
700000001823,Ballyhackamore,54.595120,-5.866936
700000001824,Castle Street,54.599205,-5.934055
700000001826,Braniel (Farmhurst Green),54.580226,-5.848090
700000001827,Knock Road,54.593451,-5.855007
700000001831,Holywood Exchange,54.626858,-5.857938
700000001839,Knock Road,54.592745,-5.854878
700000001841,Churchview,54.628140,-5.965932
700000001842,Formby Park,54.628390,-5.964872
700000001843,Arthur Bridge,54.654733,-5.931267
700000001844,Motelands,54.611343,-5.853199
700000001845,Knocknagoney Drive,54.616388,-5.850096
700000001846,Annadale Bowling Green,54.567786,-5.917017
700000001847,Annadale Allotments,54.568586,-5.920917
700000001848,Wellington Square,54.571083,-5.926265
700000001849,Annadale Terrace,54.573876,-5.929444
700000001850,Lyric,54.577092,-5.930095
700000001851,Queen's PEC,54.581157,-5.927638
700000001852,Collingwood Avenue,54.582867,-5.924257
700000001853,Dunnes,54.581715,-5.924301
700000001854,Agra Street,54.580742,-5.926282
700000001855,Sunnyside Street,54.577225,-5.927398
700000001856,The Terrace,54.575004,-5.929863
700000001857,Wellington Square,54.570898,-5.925876
700000001858,Annadale Allotments,54.568781,-5.921261
700000001859,Annadale Bowling Green,54.567977,-5.917794
700000001860,Glenmachan Street,54.586345,-5.958272
700000001861,Hurst's,54.583050,-5.961932
700000001862,Boucher Retail Park,54.579413,-5.966425
700000001863,Boucher Place,54.577566,-5.965966
700000001864,Boucher Place,54.577474,-5.966035
700000001865,Boucher Retail Park,54.579702,-5.966391
700000001866,Hurst's,54.583030,-5.961435
700000001867,Village Square,54.553636,-6.047228
700000001868,Village Square,54.553764,-6.047164
700000001871,Lagmore View,54.556728,-6.041376
700000001872,Donegall Square South,54.596030,-5.929071
700000002415,Davar Avenue,54.595147,-5.794594
700000002416,High School,54.595017,-5.788123
700000002417,Carrowreagh Road,54.594364,-5.781697
700000002425,Quarry Inn,54.593940,-5.778576
700000002426,Carrowreagh Road,54.594285,-5.784493
700000002427,High School,54.595128,-5.791479
700000002782,Millars Forge,54.583174,-5.796127
700000003234,Millars Forge,54.583340,-5.796545
700000003531,Whiteabbey Station Road,54.671686,-5.900133
700000003532,Dillions Avenue,54.673404,-5.897613
700000003533,W/Abbey Presbyterian Church,54.676660,-5.892882
700000003610,Circular Road Whiteabbey,54.678164,-5.889720
700000003611,Dillons Avenue,54.673986,-5.896319
700000003612,Whiteabbey Station Road,54.671296,-5.900235
700000003613,Abbey Green,54.688287,-5.918012
700000003683,Jordanstown Road,54.689097,-5.917438
700000003705,Lacken Walk,54.675373,-5.915743
700000003706,Lacken Gardens,54.674251,-5.916503
700000003707,Tulleevin Walk,54.673697,-5.918079
700000003708,Renagh Park,54.673119,-5.920646
700000003709,Altnacreeve Park,54.672410,-5.921152
700000003747,Jennings Park,54.689869,-5.913290
700000003748,Hollybank Court,54.688872,-5.910477
700000003749,Hollybank Primary School,54.686874,-5.908282
700000003750,Seagoe Gardens,54.685613,-5.906391
700000003751,Hollybank Way,54.684321,-5.905739
700000003752,Monkstown (Devenish Drive),54.684029,-5.905897
700000003753,Seagoe Gardens,54.685765,-5.906701
700000003754,Hollybank Primary School,54.687440,-5.909439
700000003755,Hollybank Court,54.688770,-5.910576
700000003772,Newtownabbey Community School,54.658882,-5.911765
700000003773,Armoy Gardens,54.660037,-5.915243
700000003774,Avonlea Gardens,54.661898,-5.916104
700000003775,Rathcoole Diamond,54.663195,-5.917998
700000003776,Clonbeg Drive,54.661643,-5.921199
700000003777,Clonmore Walk,54.662560,-5.925647
700000003778,West Crescent,54.663083,-5.929763
700000003781,Carnreagh Bend,54.664650,-5.928596
700000003782,Rathcoole (Primary School),54.667248,-5.928350
700000003783,Rathcoole Leisure Park,54.668594,-5.924555
700000003784,Derrycoole Walk,54.668908,-5.920162
700000003785,Eastway,54.667964,-5.917092
700000003788,Green End,54.665932,-5.914274
700000003789,Green End,54.665952,-5.914788
700000003790,Eastway,54.667814,-5.917264
700000003791,Derrycoole Park,54.668963,-5.919547
700000003792,Braden Glen,54.668304,-5.925473
700000003793,Rathcoole (Primary School),54.667323,-5.927690
700000003794,Carnreagh Bend,54.664360,-5.928645
700000003796,Ballyalton Park,54.689791,-5.912087
700000003797,White Church,54.689800,-5.916264
700000003798,White Church,54.689874,-5.916489
700000003804,Clonmore Walk,54.662498,-5.925347
700000003806,Rathcoole Diamond,54.663437,-5.916625
700000003807,Avonlea Gardens,54.662037,-5.915994
700000003808,Armoy Gardens,54.660085,-5.915154
700000003809,Newtownabbey Community School,54.658986,-5.911868
700000014513,Melfort Drive,54.588082,-5.835499
700000014514,Melfort Drive (Kilmory Gardens),54.587301,-5.835456
700000014515,308 Melfort Drive,54.586344,-5.834158
700000014517,360 Melfort Drive,54.587869,-5.829439
700000014518,Melfort Drive (Alford Park),54.586935,-5.829986
700000014519,71 Melfort Drive,54.586041,-5.834068
700000014520,7 Melfort Drive,54.587165,-5.835505
700000014521,21 Leven Drive,54.585373,-5.829035
700000014522,Leven Drive-Lochinver Drive,54.586233,-5.828868
700000014523,Leven Drive-Melfort Drive,54.586337,-5.830674
700000014524,Leven Drive-Lochinver Drive,54.586271,-5.828794
700000014525,16 Leven Drive,54.585511,-5.828087
700000014526,1 Leven Drive,54.585186,-5.830674
700000014605,5 Leven Drive,54.585253,-5.830556
700000014629,14 Newtownbreda Rd,54.560327,-5.911271
700000014630,Belvoir Dive Top Stop,54.553200,-5.920831
700000014631,21 Belvoir Drive,54.553415,-5.925014
700000014632,67 Belvoir Drive,54.553387,-5.928926
700000014633,Belvoir Primary School,54.551710,-5.931549
700000014634,147A Belvoir Drive,54.551181,-5.937022
700000014635,Moyle Walk,54.551441,-5.939786
700000014636,175 Belvoir Drive,54.549966,-5.941175
700000014637,Old Milltown Rd,54.548144,-5.941046
700000014638,Taylor Court Old Milltown Rd,54.547600,-5.935687
700000014640,Hospital Road,54.545426,-5.927850
700000014641,Purdysburn Road,54.545063,-5.924381
700000014642,Alderwood Hill,54.543937,-5.916662
700000014643,Royal Lodge Road,54.545465,-5.909182
700000014644,31 Beechill Rd,54.547846,-5.909255
700000014645,Beechill Road (Cedarhurst Rd),54.550816,-5.914197
700000014646,Beechill Road (Berkley Court),54.552660,-5.918087
700000014648,Newtownbreda Rd (Greer Pk Ave),54.547274,-5.926079
700000014649,Hydebank Roundabout,54.545595,-5.930404
700000014650,Milltown Rd (Maxol Garage),54.547353,-5.938556
700000014651,246 Belvoir Drive,54.550482,-5.941333
700000014652,190 Belvoir Drive,54.551662,-5.938817
700000014653,134A Belvoir Drive,54.550785,-5.936195
700000014654,Belvoir Primary School,54.551624,-5.932238
700000014655,Belvoir Drive (Boys Brigade Rd),54.553358,-5.929248
700000014656,Belvoir Drive (Greenwood Lodge),54.553510,-5.924868
700000014657,Belvoir Dive Top Stop,54.553405,-5.921160
700000014658,Newtownbreda Rd (Intersport Shop),54.560421,-5.911420
700000014699,East Link Rd,54.591297,-5.810047
700000014700,East Link Rd,54.588364,-5.813799
700000014701,East Link Rd (Hanwood Ave),54.588642,-5.813810
700000014702,East Link Rd,54.591064,-5.810598
700000014706,Ballymagarry Lane,54.605663,-5.978292
700000014707,Ballygomartin (Highcliffe Gardens),54.604291,-5.979800
700000014713,Springmartin,54.600599,-5.980477
700000014714,Stewartstown Road (Woodbourne),54.567004,-6.012118
700000014715,Black's Road (Oakhurst),54.560057,-5.997553
700000014717,Lagmore Grove,54.552263,-6.030211
700000014718,Clonbeg Drive,54.661696,-5.920941
700000014720,Park Royal,54.567443,-5.969951
700000014721,Colinbrook,54.570128,-6.023632
700000014722,Brainswell Road (Glenbawn),54.559145,-6.033119
700000014723,Ballyowen,54.573059,-5.994415
700000014724,Black's Road (Black's Court),54.564457,-6.005924
700000014725,Old Holywood Road 139,54.613860,-5.851546
700000014727,Castle Gardens 33,54.638740,-5.929675
700000014728,Donegall Park Avenue 74,54.638145,-5.926951
700000014729,Brian's Well Road (Glenkeen,54.560928,-6.035741
700000014730,Great George's Street,54.607190,-5.930783
700000014731,Great George's Street,54.606802,-5.931381
700000014732,North Queen Street (Yorkgate),54.608867,-5.929008
700000014733,North Queen Street (Yorkgate),54.608962,-5.929404
700000014734,Northcott,54.677977,-5.965302
700000014735,Northcott,54.677861,-5.965539
700000014736,Black's Road (Brooke Drive),54.564211,-6.004120
700000014737,Donegall Park Avenue 69,54.637906,-5.926276
700000014738,Innisfayle Road 26,54.639040,-5.932883
700000014739,Castle Gardens 61,54.639597,-5.929603
700000014740,Northcott (Link Road),54.676743,-5.968658
700000014741,Northcott (Link Road),54.676646,-5.968586
700000014742,Cavehill Road 10th Stop,54.631590,-5.947061
700000014743,Ballysillan Road 3rd Stop,54.631372,-5.959798
700000014744,Circular Road 1st Stop,54.606196,-5.870451
700000014745,Circular Road (Orchard Lane),54.604471,-5.864214
700000014746,Circular Road 3rd Stop,54.605654,-5.860112
700000014747,Cairnburn Road,54.606307,-5.854039
700000014748,Stranmillis (Broomhill Park),54.569739,-5.940764
700000014750,Helen's Wood,54.565775,-6.014705
700000014751,Bell Steel Road (Brian's Well Road),54.558935,-6.031582
700000014752,Bell Steel Road (Laurelbank),54.561947,-6.028660
700000014753,Glenview  Park,54.576684,-5.869724
700000014754,Glenview  Park,54.576767,-5.869407
700000014755,Credenhill,54.557803,-6.011847
700000014756,Melfort Drive,54.588190,-5.835772
700000014759,knocknagoney 12,54.618146,-5.850232
700000014760,Park Centre Terminus,54.588714,-5.962529
700000014761,Clara Road Entrance,54.589221,-5.864952
700000014762,Knock Dual Carriageway 44,54.580274,-5.869693
700000014763,Clara Road (Sandown Road),54.589436,-5.864415
700000014764,Clarawood Park 59,54.586663,-5.870129
700000014765,Royal Lodge Road,54.545641,-5.908750
700000014766,Greenwood Glen,54.544109,-5.918566
700000014767,Little Alderwood,54.544837,-5.924390
700000014768,Mallusk (Enterprise Way),54.671449,-5.972657
700000014769,Ballyrobert Garage,54.671535,-5.972510
700000014770,Woodvale Parade,54.612105,-5.963147
700000014771,Laurelgrove,54.549300,-5.888462
700000014772,Ballymaconaghy Mews,54.551203,-5.889695
700000014773,Ballymaconaghy Mews,54.550851,-5.889739
700000014776,Queen's Road (Pyeroy),54.616460,-5.895307
700000014778,Queen's Road (Pyeroy),54.615944,-5.895412
700000014780,Odyssey,54.603041,-5.916750
700000014782,Windemere,54.555701,-5.891888
700000014786,Andersonstown Leisure Centre,54.573634,-5.987892
700000014788,Farset,54.598358,-5.974233
700000014985,16 Donegall Park Avenue,54.638359,-5.931979
700000014994,Lower Beechill Road,54.552726,-5.917970
700000014995,Newtownbreda Factory Estate,54.551067,-5.914515
700000014996,355 Beechill Road,54.548081,-5.909231
700000014997,Tesco Newtownbreda,54.550868,-5.921195
700000015008,City Centre,54.597367,-5.930284
700000015009,Easons / Menzies,54.620928,-5.884715
700000015010,Easons / Menzies,54.621123,-5.884268
700000015039,Ulster Hall,54.594629,-5.931228
700000015040,Newtownbreda Rd (Greer Pk Ave),54.547417,-5.926108
700000015109,Black's Road P&R,54.556775,-5.994539
700000015132,IKEA,54.621470,-5.864433
700000015150,Victoria Centre,54.597573,-5.925332
700000015195,Whiteabbey Presbyterian Church,54.676812,-5.892322
700000015233,Stenaline terminus,54.635824,-5.881284
700000015234,Circular Road,54.678792,-5.890044
700000015235,Glenbroome Park,54.680196,-5.892274
700000015236,Coolemoyne Park,54.681743,-5.894223
700000015237,Glencree Park,54.685183,-5.894646
700000015238,Railway Court,54.686867,-5.894000
700000015239,Hampton Court,54.689005,-5.904404
700000015240,Mount Pleasant,54.689413,-5.905158
700000015241,Railway Court,54.686994,-5.893702
700000015242,Coolemoyne Park,54.681510,-5.893921
700000015243,Woodgreen,54.679610,-5.891457
700000015280,Hightown Park,54.668803,-5.965043
700000015290,Mayfield Link,54.672637,-5.983015
700000015291,Alderley Place,54.670190,-5.984963
700000015292,Mayfield High Street,54.668843,-5.985731
700000015293,Blackrock Road,54.668079,-5.987068
700000015294,Blackrock Avenue,54.668516,-5.992356
700000015295,Dermont Road,54.669301,-5.996111
700000015296,Blackrock Square,54.669305,-5.994063
700000015297,Blackrock Avenue,54.669122,-5.989266
700000015298,Blackrock Road,54.668169,-5.987062
700000015299,Alderley Place,54.670194,-5.985119
700000015300,Mayfield Link,54.672901,-5.982932
700000015302,Blackrock Avenue,54.669066,-5.989322
700000015320,Holywood Road (Strand Cinema),54.600090,-5.880513
700000015321,Castle Junction 1,54.599248,-5.929428
700000015322,Castle Junction 2,54.599185,-5.929964
700000015323,Annadale Embankment,54.572719,-5.928218
700000015356,Colligan Street,54.596113,-5.955767
700000015357,Cavehill Road (Cedar Avenue),54.623441,-5.943233
700000015358,Esther Street,54.618309,-5.927935
700000015361,Queen's Rd (Premier Inn),54.603902,-5.912386
700000015362,Sydenham Road (CITI Building),54.603290,-5.911290
700000015363,Europa Buscentre,54.594487,-5.936140
700000015364,Upper Queen Street 1,54.596956,-5.933250
700000015365,Upper Queen Street 2,54.596641,-5.933250
700000015366,Upper Queen Street 3,54.596278,-5.933339
700000015367,Queen Street 1,54.599018,-5.933170
700000015369,Ballybeen (Enler Centre),54.588941,-5.790888
700000015371,Titanic Quarter (Belfast Met),54.605786,-5.909453
700000015373,Queen's Road (PRONI),54.604605,-5.910936
700000015382,Durham Street RBAI,54.596706,-5.938167
700000015383,"Ravenhill Road, Ardenlee",54.583402,-5.911657
700000015422,"Belfast, Glengall Street",54.595183,-5.936052
700000015874,Old Mill Grove,54.592501,-5.776862
700000015875,Old Mill Dale,54.590651,-5.777930
700000015876,Coopers Mill Park,54.588884,-5.781219
700000015877,Old Mill Park,54.590098,-5.778622
700000015878,Old Mill Dale,54.591231,-5.777782
700000015879,Old Mill Close,54.593217,-5.777254
700000015897,Glen Road Industrial Estate,54.576974,-6.022233
700000015898,Glen Road Industrial Estate,54.576837,-6.022297
700000015899,Hawthorn Glen,54.578075,-6.026739
700000015900,Hannahstown Hill,54.580113,-6.028442
700000015907,Musgrave Park Hospital,54.567171,-5.975760
700000015908,Musgrave Park Hospital (Withers Building),54.569389,-5.977508
700000015909,Musgrave Park Hospital (Disablement Services),54.569130,-5.982111
700000015910,Musgrave Park Hospital (Meadowlands)l,54.567700,-5.982359
700000015911,Musgrave Park Hospital (Estates),54.567506,-5.979523
700000015912,Musgrave Park Hospital (McKinney House 1),54.566975,-5.974347
700000015913,Musgrave Park Hospital (McKinney House 2),54.567210,-5.973488
700000015914,Howard Street,54.595823,-5.932412
700000016007,Garnerville Road,54.614540,-5.854183
700000016008,Glenluce Drive,54.614626,-5.856283
700000016009,Glendhu Manor,54.615354,-5.860815
700000016011,Dundonald Park & Ride,54.596001,-5.797461
700000016027,Durham Street,54.596575,-5.938309
700000016036,"Great Victoria Street, Naval Club",54.592067,-5.934234
700000016038,Malvern Street,54.603843,-5.944062
700000016060,McCandless Street,54.610450,-5.951070
700000016062,Northcott,54.678170,-5.962713
700000016063,Hamilton Road,54.603349,-5.899692
700000016064,Titanic,54.614783,-5.898493
700000016066,Holywood Exchange (Retail),54.623661,-5.861742
700000016067,Blackstaff Road,54.576326,-5.978789
700000016068,Shaw's Road,54.577272,-6.010047
700000016069,Glen Road Heights,54.577576,-6.009272
700000016070,Millmount,54.582007,-5.792333
